Before ksched INFO INIT
BEFORE KTHREAD_INIT
Kthread tid: 2087, pid: 2087
Before kthread_credit
After kthread_credit
Before kthread_init runqueue
after kthread_init runqueue
after cpu_affinit
after yield
AFTER KTHREAD_INIT
AFTER SIGHANDLER
num_cpus: 4
INITIALISING VIRTUAL processors
AFTER MALLCO
INSIDE KTHREAD_CREATE
TID of the new kthread: 2089
kthread(1) created !!
INITIALISING VIRTUAL processors
AFTER MALLCO
INSIDE KTHREAD_CREATE
TID of the new kthread: 2090
kthread(2) created !!
INITIALISING VIRTUAL processors
AFTER MALLCO
INSIDE KTHREAD_CREATE
TID of the new kthread: 2091
kthread(3) created !!
Kthread tid: 2089, pid: 2089
Before kthread_credit
After kthread_credit
Before kthread_init runqueue
after kthread_init runqueue
Kthread tid: 2090, pid: 2090
Before kthread_credit
After kthread_credit
Before kthread_init runqueue
after kthread_init runqueue
Kthread tid: 2091, pid: 2091
Before kthread_credit
After kthread_credit
Before kthread_init runqueue
after kthread_init runqueue
after cpu_affinit
after cpu_affinit
after cpu_affinit
after yield
after yield
after yield
group_id: 0, current_row: 0, rows_per_thread: 4, size: 32, credits: 25, inx: 0, NUM_THREADS: 128
Before alloting start time
After alloting start time
group_id: 0, current_row: 4, rows_per_thread: 4, size: 32, credits: 25, inx: 1, NUM_THREADS: 128
Before alloting start time
After alloting start time
group_id: 0, current_row: 8, rows_per_thread: 4, size: 32, credits: 25, inx: 2, NUM_THREADS: 128
Before alloting start time
After alloting start time
group_id: 0, current_row: 12, rows_per_thread: 4, size: 32, credits: 25, inx: 3, NUM_THREADS: 128
Before alloting start time
After alloting start time
group_id: 0, current_row: 16, rows_per_thread: 4, size: 32, credits: 25, inx: 4, NUM_THREADS: 128
Before alloting start time
After alloting start time
group_id: 0, current_row: 20, rows_per_thread: 4, size: 32, credits: 25, inx: 5, NUM_THREADS: 128
Before alloting start time
After alloting start time
group_id: 0, current_row: 24, rows_per_thread: 4, size: 32, credits: 25, inx: 6, NUM_THREADS: 128
Before alloting start time
After alloting start time
group_id: 0, current_row: 28, rows_per_thread: 4, size: 32, credits: 25, inx: 7, NUM_THREADS: 128
Before alloting start time
After alloting start time
group_id: 1, current_row: 0, rows_per_thread: 4, size: 32, credits: 50, inx: 8, NUM_THREADS: 128
Before alloting start time
After alloting start time
group_id: 1, current_row: 4, rows_per_thread: 4, size: 32, credits: 50, inx: 9, NUM_THREADS: 128
Before alloting start time
After alloting start time
group_id: 1, current_row: 8, rows_per_thread: 4, size: 32, credits: 50, inx: 10, NUM_THREADS: 128
Before alloting start time
After alloting start time
group_id: 1, current_row: 12, rows_per_thread: 4, size: 32, credits: 50, inx: 11, NUM_THREADS: 128
Before alloting start time
After alloting start time
group_id: 1, current_row: 16, rows_per_thread: 4, size: 32, credits: 50, inx: 12, NUM_THREADS: 128
Before alloting start time
After alloting start time
group_id: 1, current_row: 20, rows_per_thread: 4, size: 32, credits: 50, inx: 13, NUM_THREADS: 128
Before alloting start time
After alloting start time
group_id: 1, current_row: 24, rows_per_thread: 4, size: 32, credits: 50, inx: 14, NUM_THREADS: 128
Before alloting start time
After alloting start time
group_id: 1, current_row: 28, rows_per_thread: 4, size: 32, credits: 50, inx: 15, NUM_THREADS: 128
Before alloting start time
After alloting start time
group_id: 2, current_row: 0, rows_per_thread: 4, size: 32, credits: 75, inx: 16, NUM_THREADS: 128
Before alloting start time
After alloting start time
group_id: 2, current_row: 4, rows_per_thread: 4, size: 32, credits: 75, inx: 17, NUM_THREADS: 128
Before alloting start time
After alloting start time
group_id: 2, current_row: 8, rows_per_thread: 4, size: 32, credits: 75, inx: 18, NUM_THREADS: 128
Before alloting start time
After alloting start time
group_id: 2, current_row: 12, rows_per_thread: 4, size: 32, credits: 75, inx: 19, NUM_THREADS: 128
Before alloting start time
After alloting start time
group_id: 2, current_row: 16, rows_per_thread: 4, size: 32, credits: 75, inx: 20, NUM_THREADS: 128
Before alloting start time
After alloting start time
group_id: 2, current_row: 20, rows_per_thread: 4, size: 32, credits: 75, inx: 21, NUM_THREADS: 128
Before alloting start time
After alloting start time
group_id: 2, current_row: 24, rows_per_thread: 4, size: 32, credits: 75, inx: 22, NUM_THREADS: 128
Before alloting start time
After alloting start time
group_id: 2, current_row: 28, rows_per_thread: 4, size: 32, credits: 75, inx: 23, NUM_THREADS: 128
Before alloting start time
After alloting start time
group_id: 3, current_row: 0, rows_per_thread: 4, size: 32, credits: 100, inx: 24, NUM_THREADS: 128
Before alloting start time
After alloting start time
group_id: 3, current_row: 4, rows_per_thread: 4, size: 32, credits: 100, inx: 25, NUM_THREADS: 128
Before alloting start time
After alloting start time
group_id: 3, current_row: 8, rows_per_thread: 4, size: 32, credits: 100, inx: 26, NUM_THREADS: 128
Before alloting start time
After alloting start time
group_id: 3, current_row: 12, rows_per_thread: 4, size: 32, credits: 100, inx: 27, NUM_THREADS: 128
Before alloting start time
After alloting start time
group_id: 3, current_row: 16, rows_per_thread: 4, size: 32, credits: 100, inx: 28, NUM_THREADS: 128
Before alloting start time
After alloting start time
group_id: 3, current_row: 20, rows_per_thread: 4, size: 32, credits: 100, inx: 29, NUM_THREADS: 128
Before alloting start time
After alloting start time
group_id: 3, current_row: 24, rows_per_thread: 4, size: 32, credits: 100, inx: 30, NUM_THREADS: 128
Before alloting start time
After alloting start time
group_id: 3, current_row: 28, rows_per_thread: 4, size: 32, credits: 100, inx: 31, NUM_THREADS: 128
Before alloting start time
After alloting start time
group_id: 4, current_row: 0, rows_per_thread: 8, size: 64, credits: 25, inx: 32, NUM_THREADS: 128
Before alloting start time
After alloting start time
group_id: 4, current_row: 8, rows_per_thread: 8, size: 64, credits: 25, inx: 33, NUM_THREADS: 128
Before alloting start time
After alloting start time
group_id: 4, current_row: 16, rows_per_thread: 8, size: 64, credits: 25, inx: 34, NUM_THREADS: 128
Before alloting start time
After alloting start time
group_id: 4, current_row: 24, rows_per_thread: 8, size: 64, credits: 25, inx: 35, NUM_THREADS: 128
Before alloting start time
After alloting start time
group_id: 4, current_row: 32, rows_per_thread: 8, size: 64, credits: 25, inx: 36, NUM_THREADS: 128
Before alloting start time
After alloting start time
group_id: 4, current_row: 40, rows_per_thread: 8, size: 64, credits: 25, inx: 37, NUM_THREADS: 128
Before alloting start time
After alloting start time
group_id: 4, current_row: 48, rows_per_thread: 8, size: 64, credits: 25, inx: 38, NUM_THREADS: 128
Before alloting start time
After alloting start time
group_id: 4, current_row: 56, rows_per_thread: 8, size: 64, credits: 25, inx: 39, NUM_THREADS: 128
Before alloting start time
After alloting start time
group_id: 5, current_row: 0, rows_per_thread: 8, size: 64, credits: 50, inx: 40, NUM_THREADS: 128
Before alloting start time
After alloting start time
group_id: 5, current_row: 8, rows_per_thread: 8, size: 64, credits: 50, inx: 41, NUM_THREADS: 128
Before alloting start time
After alloting start time
group_id: 5, current_row: 16, rows_per_thread: 8, size: 64, credits: 50, inx: 42, NUM_THREADS: 128
Before alloting start time
After alloting start time
group_id: 5, current_row: 24, rows_per_thread: 8, size: 64, credits: 50, inx: 43, NUM_THREADS: 128
Before alloting start time
After alloting start time
group_id: 5, current_row: 32, rows_per_thread: 8, size: 64, credits: 50, inx: 44, NUM_THREADS: 128
Before alloting start time
After alloting start time
group_id: 5, current_row: 40, rows_per_thread: 8, size: 64, credits: 50, inx: 45, NUM_THREADS: 128
Before alloting start time
After alloting start time
group_id: 5, current_row: 48, rows_per_thread: 8, size: 64, credits: 50, inx: 46, NUM_THREADS: 128
Before alloting start time
After alloting start time
group_id: 5, current_row: 56, rows_per_thread: 8, size: 64, credits: 50, inx: 47, NUM_THREADS: 128
Before alloting start time
After alloting start time
group_id: 6, current_row: 0, rows_per_thread: 8, size: 64, credits: 75, inx: 48, NUM_THREADS: 128
Before alloting start time
After alloting start time
group_id: 6, current_row: 8, rows_per_thread: 8, size: 64, credits: 75, inx: 49, NUM_THREADS: 128
Before alloting start time
After alloting start time
group_id: 6, current_row: 16, rows_per_thread: 8, size: 64, credits: 75, inx: 50, NUM_THREADS: 128
Before alloting start time
After alloting start time
group_id: 6, current_row: 24, rows_per_thread: 8, size: 64, credits: 75, inx: 51, NUM_THREADS: 128
Before alloting start time
After alloting start time
group_id: 6, current_row: 32, rows_per_thread: 8, size: 64, credits: 75, inx: 52, NUM_THREADS: 128
Before alloting start time
After alloting start time
group_id: 6, current_row: 40, rows_per_thread: 8, size: 64, credits: 75, inx: 53, NUM_THREADS: 128
Before alloting start time
After alloting start time
group_id: 6, current_row: 48, rows_per_thread: 8, size: 64, credits: 75, inx: 54, NUM_THREADS: 128
Before alloting start time
After alloting start time
group_id: 6, current_row: 56, rows_per_thread: 8, size: 64, credits: 75, inx: 55, NUM_THREADS: 128
Before alloting start time
After alloting start time
group_id: 7, current_row: 0, rows_per_thread: 8, size: 64, credits: 100, inx: 56, NUM_THREADS: 128
Before alloting start time
After alloting start time
group_id: 7, current_row: 8, rows_per_thread: 8, size: 64, credits: 100, inx: 57, NUM_THREADS: 128
Before alloting start time
After alloting start time
group_id: 7, current_row: 16, rows_per_thread: 8, size: 64, credits: 100, inx: 58, NUM_THREADS: 128
Before alloting start time
After alloting start time
group_id: 7, current_row: 24, rows_per_thread: 8, size: 64, credits: 100, inx: 59, NUM_THREADS: 128
Before alloting start time
After alloting start time
group_id: 7, current_row: 32, rows_per_thread: 8, size: 64, credits: 100, inx: 60, NUM_THREADS: 128
Before alloting start time
After alloting start time
group_id: 7, current_row: 40, rows_per_thread: 8, size: 64, credits: 100, inx: 61, NUM_THREADS: 128
Before alloting start time
After alloting start time
group_id: 7, current_row: 48, rows_per_thread: 8, size: 64, credits: 100, inx: 62, NUM_THREADS: 128
Before alloting start time
After alloting start time
group_id: 7, current_row: 56, rows_per_thread: 8, size: 64, credits: 100, inx: 63, NUM_THREADS: 128
Before alloting start time
After alloting start time
group_id: 8, current_row: 0, rows_per_thread: 16, size: 128, credits: 25, inx: 64, NUM_THREADS: 128
Before alloting start time
After alloting start time
group_id: 8, current_row: 16, rows_per_thread: 16, size: 128, credits: 25, inx: 65, NUM_THREADS: 128
Before alloting start time
After alloting start time
group_id: 8, current_row: 32, rows_per_thread: 16, size: 128, credits: 25, inx: 66, NUM_THREADS: 128
Before alloting start time
After alloting start time
group_id: 8, current_row: 48, rows_per_thread: 16, size: 128, credits: 25, inx: 67, NUM_THREADS: 128
Before alloting start time
After alloting start time
group_id: 8, current_row: 64, rows_per_thread: 16, size: 128, credits: 25, inx: 68, NUM_THREADS: 128
Before alloting start time
After alloting start time
group_id: 8, current_row: 80, rows_per_thread: 16, size: 128, credits: 25, inx: 69, NUM_THREADS: 128
Before alloting start time
After alloting start time
group_id: 8, current_row: 96, rows_per_thread: 16, size: 128, credits: 25, inx: 70, NUM_THREADS: 128
Before alloting start time
After alloting start time
group_id: 8, current_row: 112, rows_per_thread: 16, size: 128, credits: 25, inx: 71, NUM_THREADS: 128
Before alloting start time
After alloting start time
group_id: 9, current_row: 0, rows_per_thread: 16, size: 128, credits: 50, inx: 72, NUM_THREADS: 128
Before alloting start time
After alloting start time
group_id: 9, current_row: 16, rows_per_thread: 16, size: 128, credits: 50, inx: 73, NUM_THREADS: 128
Before alloting start time
After alloting start time
group_id: 9, current_row: 32, rows_per_thread: 16, size: 128, credits: 50, inx: 74, NUM_THREADS: 128
Before alloting start time
After alloting start time
group_id: 9, current_row: 48, rows_per_thread: 16, size: 128, credits: 50, inx: 75, NUM_THREADS: 128
Before alloting start time
After alloting start time
group_id: 9, current_row: 64, rows_per_thread: 16, size: 128, credits: 50, inx: 76, NUM_THREADS: 128
Before alloting start time
After alloting start time
group_id: 9, current_row: 80, rows_per_thread: 16, size: 128, credits: 50, inx: 77, NUM_THREADS: 128
Before alloting start time
After alloting start time
group_id: 9, current_row: 96, rows_per_thread: 16, size: 128, credits: 50, inx: 78, NUM_THREADS: 128
Before alloting start time
After alloting start time
group_id: 9, current_row: 112, rows_per_thread: 16, size: 128, credits: 50, inx: 79, NUM_THREADS: 128
Before alloting start time
After alloting start time
group_id: 10, current_row: 0, rows_per_thread: 16, size: 128, credits: 75, inx: 80, NUM_THREADS: 128
Before alloting start time
After alloting start time
group_id: 10, current_row: 16, rows_per_thread: 16, size: 128, credits: 75, inx: 81, NUM_THREADS: 128
Before alloting start time
After alloting start time
group_id: 10, current_row: 32, rows_per_thread: 16, size: 128, credits: 75, inx: 82, NUM_THREADS: 128
Before alloting start time
After alloting start time
group_id: 10, current_row: 48, rows_per_thread: 16, size: 128, credits: 75, inx: 83, NUM_THREADS: 128
Before alloting start time
After alloting start time
group_id: 10, current_row: 64, rows_per_thread: 16, size: 128, credits: 75, inx: 84, NUM_THREADS: 128
Before alloting start time
After alloting start time
group_id: 10, current_row: 80, rows_per_thread: 16, size: 128, credits: 75, inx: 85, NUM_THREADS: 128
Before alloting start time
After alloting start time
group_id: 10, current_row: 96, rows_per_thread: 16, size: 128, credits: 75, inx: 86, NUM_THREADS: 128
Before alloting start time
After alloting start time
group_id: 10, current_row: 112, rows_per_thread: 16, size: 128, credits: 75, inx: 87, NUM_THREADS: 128
Before alloting start time
After alloting start time
group_id: 11, current_row: 0, rows_per_thread: 16, size: 128, credits: 100, inx: 88, NUM_THREADS: 128
Before alloting start time
After alloting start time
group_id: 11, current_row: 16, rows_per_thread: 16, size: 128, credits: 100, inx: 89, NUM_THREADS: 128
Before alloting start time
After alloting start time
group_id: 11, current_row: 32, rows_per_thread: 16, size: 128, credits: 100, inx: 90, NUM_THREADS: 128
Before alloting start time
After alloting start time
group_id: 11, current_row: 48, rows_per_thread: 16, size: 128, credits: 100, inx: 91, NUM_THREADS: 128
Before alloting start time
After alloting start time
group_id: 11, current_row: 64, rows_per_thread: 16, size: 128, credits: 100, inx: 92, NUM_THREADS: 128
Before alloting start time
After alloting start time
group_id: 11, current_row: 80, rows_per_thread: 16, size: 128, credits: 100, inx: 93, NUM_THREADS: 128
Before alloting start time
After alloting start time
group_id: 11, current_row: 96, rows_per_thread: 16, size: 128, credits: 100, inx: 94, NUM_THREADS: 128
Before alloting start time
After alloting start time
group_id: 11, current_row: 112, rows_per_thread: 16, size: 128, credits: 100, inx: 95, NUM_THREADS: 128
Before alloting start time
After alloting start time
group_id: 12, current_row: 0, rows_per_thread: 32, size: 256, credits: 25, inx: 96, NUM_THREADS: 128
Before alloting start time
After alloting start time
group_id: 12, current_row: 32, rows_per_thread: 32, size: 256, credits: 25, inx: 97, NUM_THREADS: 128
Before alloting start time
After alloting start time
group_id: 12, current_row: 64, rows_per_thread: 32, size: 256, credits: 25, inx: 98, NUM_THREADS: 128
Before alloting start time
After alloting start time
group_id: 12, current_row: 96, rows_per_thread: 32, size: 256, credits: 25, inx: 99, NUM_THREADS: 128
Before alloting start time
After alloting start time
group_id: 12, current_row: 128, rows_per_thread: 32, size: 256, credits: 25, inx: 100, NUM_THREADS: 128
Before alloting start time
After alloting start time
group_id: 12, current_row: 160, rows_per_thread: 32, size: 256, credits: 25, inx: 101, NUM_THREADS: 128
Before alloting start time
After alloting start time
group_id: 12, current_row: 192, rows_per_thread: 32, size: 256, credits: 25, inx: 102, NUM_THREADS: 128
Before alloting start time
After alloting start time
group_id: 12, current_row: 224, rows_per_thread: 32, size: 256, credits: 25, inx: 103, NUM_THREADS: 128
Before alloting start time
After alloting start time
group_id: 13, current_row: 0, rows_per_thread: 32, size: 256, credits: 50, inx: 104, NUM_THREADS: 128
Before alloting start time
After alloting start time
group_id: 13, current_row: 32, rows_per_thread: 32, size: 256, credits: 50, inx: 105, NUM_THREADS: 128
Before alloting start time
After alloting start time
group_id: 13, current_row: 64, rows_per_thread: 32, size: 256, credits: 50, inx: 106, NUM_THREADS: 128
Before alloting start time
After alloting start time
group_id: 13, current_row: 96, rows_per_thread: 32, size: 256, credits: 50, inx: 107, NUM_THREADS: 128
Before alloting start time
After alloting start time
group_id: 13, current_row: 128, rows_per_thread: 32, size: 256, credits: 50, inx: 108, NUM_THREADS: 128
Before alloting start time
After alloting start time
group_id: 13, current_row: 160, rows_per_thread: 32, size: 256, credits: 50, inx: 109, NUM_THREADS: 128
Before alloting start time
After alloting start time
group_id: 13, current_row: 192, rows_per_thread: 32, size: 256, credits: 50, inx: 110, NUM_THREADS: 128
Before alloting start time
After alloting start time
group_id: 13, current_row: 224, rows_per_thread: 32, size: 256, credits: 50, inx: 111, NUM_THREADS: 128
Before alloting start time
After alloting start time
group_id: 14, current_row: 0, rows_per_thread: 32, size: 256, credits: 75, inx: 112, NUM_THREADS: 128
Before alloting start time
After alloting start time
group_id: 14, current_row: 32, rows_per_thread: 32, size: 256, credits: 75, inx: 113, NUM_THREADS: 128
Before alloting start time
After alloting start time
group_id: 14, current_row: 64, rows_per_thread: 32, size: 256, credits: 75, inx: 114, NUM_THREADS: 128
Before alloting start time
After alloting start time
group_id: 14, current_row: 96, rows_per_thread: 32, size: 256, credits: 75, inx: 115, NUM_THREADS: 128
Before alloting start time
After alloting start time
group_id: 14, current_row: 128, rows_per_thread: 32, size: 256, credits: 75, inx: 116, NUM_THREADS: 128
Before alloting start time
After alloting start time
group_id: 14, current_row: 160, rows_per_thread: 32, size: 256, credits: 75, inx: 117, NUM_THREADS: 128
Before alloting start time
After alloting start time
group_id: 14, current_row: 192, rows_per_thread: 32, size: 256, credits: 75, inx: 118, NUM_THREADS: 128
Before alloting start time
After alloting start time
group_id: 14, current_row: 224, rows_per_thread: 32, size: 256, credits: 75, inx: 119, NUM_THREADS: 128
Before alloting start time
After alloting start time
group_id: 15, current_row: 0, rows_per_thread: 32, size: 256, credits: 100, inx: 120, NUM_THREADS: 128
Before alloting start time
After alloting start time
group_id: 15, current_row: 32, rows_per_thread: 32, size: 256, credits: 100, inx: 121, NUM_THREADS: 128
Before alloting start time
After alloting start time
group_id: 15, current_row: 64, rows_per_thread: 32, size: 256, credits: 100, inx: 122, NUM_THREADS: 128
Before alloting start time
After alloting start time
group_id: 15, current_row: 96, rows_per_thread: 32, size: 256, credits: 100, inx: 123, NUM_THREADS: 128
Before alloting start time
After alloting start time
group_id: 15, current_row: 128, rows_per_thread: 32, size: 256, credits: 100, inx: 124, NUM_THREADS: 128
Before alloting start time
After alloting start time
group_id: 15, current_row: 160, rows_per_thread: 32, size: 256, credits: 100, inx: 125, NUM_THREADS: 128
Before alloting start time
After alloting start time
group_id: 15, current_row: 192, rows_per_thread: 32, size: 256, credits: 100, inx: 126, NUM_THREADS: 128
Before alloting start time
After alloting start time
group_id: 15, current_row: 224, rows_per_thread: 32, size: 256, credits: 100, inx: 127, NUM_THREADS: 128
Before alloting start time
After alloting start time
Scheduling Thread: thread_id: 1, current_credits: 25, initial_credits: 25, start_time_sec: 1410786298, start_time_usec: 886732, interval_given: 125
 UTHREAD_DONE, elapsed time: 101, start_time: 886732, finish_time:886833 credits:25
UTHREAD_DONE, thread_id: 1, initial_credits: 25, execution_start_time_sec: 1410786298, execution_start_time_usec: 886732, execution_finish_time_sec: 1410786298, execution_finish_time_usec: 886833, interval_given: 125, current execution time: 101, current_credits: 25
Scheduling Thread: thread_id: 5, current_credits: 25, initial_credits: 25, start_time_sec: 1410786298, start_time_usec: 886833, interval_given: 125
 UTHREAD_DONE, elapsed time: 0, start_time: 886833, finish_time:886833 credits:25
UTHREAD_DONE, thread_id: 5, initial_credits: 25, execution_start_time_sec: 1410786298, execution_start_time_usec: 886833, execution_finish_time_sec: 1410786298, execution_finish_time_usec: 886833, interval_given: 125, current execution time: 0, current_credits: 25
Scheduling Thread: thread_id: 9, current_credits: 50, initial_credits: 50, start_time_sec: 1410786298, start_time_usec: 886833, interval_given: 250
 UTHREAD_DONE, elapsed time: 33, start_time: 886833, finish_time:886866 credits:50
UTHREAD_DONE, thread_id: 9, initial_credits: 50, execution_start_time_sec: 1410786298, execution_start_time_usec: 886833, execution_finish_time_sec: 1410786298, execution_finish_time_usec: 886866, interval_given: 250, current execution time: 33, current_credits: 50
Scheduling Thread: thread_id: 13, current_credits: 50, initial_credits: 50, start_time_sec: 1410786298, start_time_usec: 886876, interval_given: 250
 UTHREAD_DONE, elapsed time: 33, start_time: 886876, finish_time:886909 credits:50
UTHREAD_DONE, thread_id: 13, initial_credits: 50, execution_start_time_sec: 1410786298, execution_start_time_usec: 886876, execution_finish_time_sec: 1410786298, execution_finish_time_usec: 886909, interval_given: 250, current execution time: 33, current_credits: 50
Scheduling Thread: thread_id: 17, current_credits: 75, initial_credits: 75, start_time_sec: 1410786298, start_time_usec: 886921, interval_given: 375
 UTHREAD_DONE, elapsed time: 33, start_time: 886921, finish_time:886954 credits:75
UTHREAD_DONE, thread_id: 17, initial_credits: 75, execution_start_time_sec: 1410786298, execution_start_time_usec: 886921, execution_finish_time_sec: 1410786298, execution_finish_time_usec: 886954, interval_given: 375, current execution time: 33, current_credits: 75
Scheduling Thread: thread_id: 21, current_credits: 75, initial_credits: 75, start_time_sec: 1410786298, start_time_usec: 886967, interval_given: 375
 UTHREAD_DONE, elapsed time: 35, start_time: 886967, finish_time:887002 credits:75
UTHREAD_DONE, thread_id: 21, initial_credits: 75, execution_start_time_sec: 1410786298, execution_start_time_usec: 886967, execution_finish_time_sec: 1410786298, execution_finish_time_usec: 887002, interval_given: 375, current execution time: 35, current_credits: 75
Scheduling Thread: thread_id: 25, current_credits: 100, initial_credits: 100, start_time_sec: 1410786298, start_time_usec: 887012, interval_given: 500
 UTHREAD_DONE, elapsed time: 34, start_time: 887012, finish_time:887046 credits:100
UTHREAD_DONE, thread_id: 25, initial_credits: 100, execution_start_time_sec: 1410786298, execution_start_time_usec: 887012, execution_finish_time_sec: 1410786298, execution_finish_time_usec: 887046, interval_given: 500, current execution time: 34, current_credits: 100
Scheduling Thread: thread_id: 29, current_credits: 100, initial_credits: 100, start_time_sec: 1410786298, start_time_usec: 887064, interval_given: 500
 UTHREAD_DONE, elapsed time: 33, start_time: 887064, finish_time:887097 credits:100
UTHREAD_DONE, thread_id: 29, initial_credits: 100, execution_start_time_sec: 1410786298, execution_start_time_usec: 887064, execution_finish_time_sec: 1410786298, execution_finish_time_usec: 887097, interval_given: 500, current execution time: 33, current_credits: 100
Scheduling Thread: thread_id: 33, current_credits: 25, initial_credits: 25, start_time_sec: 1410786298, start_time_usec: 887111, interval_given: 125
 UTHREAD_DONE, elapsed time: 266, start_time: 887111, finish_time:887377 credits:25
************Error: elapsed_time_current > interval_given
start_time_sec: 1410786298, start_time_usec: 887111, finish_time: 1410786298, finish_time_usec: 887377
UTHREAD_DONE, thread_id: 33, initial_credits: 25, execution_start_time_sec: 1410786298, execution_start_time_usec: 887111, execution_finish_time_sec: 1410786298, execution_finish_time_usec: 887377, interval_given: 125, current execution time: 266, current_credits: 25
Scheduling Thread: thread_id: 37, current_credits: 25, initial_credits: 25, start_time_sec: 1410786298, start_time_usec: 887390, interval_given: 125
 UTHREAD_DONE, elapsed time: 286, start_time: 887390, finish_time:887676 credits:25
************Error: elapsed_time_current > interval_given
start_time_sec: 1410786298, start_time_usec: 887390, finish_time: 1410786298, finish_time_usec: 887676
UTHREAD_DONE, thread_id: 37, initial_credits: 25, execution_start_time_sec: 1410786298, execution_start_time_usec: 887390, execution_finish_time_sec: 1410786298, execution_finish_time_usec: 887676, interval_given: 125, current execution time: 286, current_credits: 25
Scheduling Thread: thread_id: 41, current_credits: 50, initial_credits: 50, start_time_sec: 1410786298, start_time_usec: 887683, interval_given: 250
 UTHREAD_DONE, elapsed time: 279, start_time: 887683, finish_time:887962 credits:50
************Error: elapsed_time_current > interval_given
start_time_sec: 1410786298, start_time_usec: 887683, finish_time: 1410786298, finish_time_usec: 887962
UTHREAD_DONE, thread_id: 41, initial_credits: 50, execution_start_time_sec: 1410786298, execution_start_time_usec: 887683, execution_finish_time_sec: 1410786298, execution_finish_time_usec: 887962, interval_given: 250, current execution time: 279, current_credits: 50
Scheduling Thread: thread_id: 45, current_credits: 50, initial_credits: 50, start_time_sec: 1410786298, start_time_usec: 887967, interval_given: 250
 UTHREAD_DONE, elapsed time: 245, start_time: 887967, finish_time:888212 credits:50
UTHREAD_DONE, thread_id: 45, initial_credits: 50, execution_start_time_sec: 1410786298, execution_start_time_usec: 887967, execution_finish_time_sec: 1410786298, execution_finish_time_usec: 888212, interval_given: 250, current execution time: 245, current_credits: 50
Scheduling Thread: thread_id: 49, current_credits: 75, initial_credits: 75, start_time_sec: 1410786298, start_time_usec: 888227, interval_given: 375
 UTHREAD_DONE, elapsed time: 267, start_time: 888227, finish_time:888494 credits:75
UTHREAD_DONE, thread_id: 49, initial_credits: 75, execution_start_time_sec: 1410786298, execution_start_time_usec: 888227, execution_finish_time_sec: 1410786298, execution_finish_time_usec: 888494, interval_given: 375, current execution time: 267, current_credits: 75
Scheduling Thread: thread_id: 53, current_credits: 75, initial_credits: 75, start_time_sec: 1410786298, start_time_usec: 888505, interval_given: 375
 UTHREAD_DONE, elapsed time: 328, start_time: 888505, finish_time:888833 credits:75
UTHREAD_DONE, thread_id: 53, initial_credits: 75, execution_start_time_sec: 1410786298, execution_start_time_usec: 888505, execution_finish_time_sec: 1410786298, execution_finish_time_usec: 888833, interval_given: 375, current execution time: 328, current_credits: 75
Scheduling Thread: thread_id: 57, current_credits: 100, initial_credits: 100, start_time_sec: 1410786298, start_time_usec: 888833, interval_given: 500
 UTHREAD_DONE, elapsed time: 217, start_time: 888833, finish_time:889050 credits:100
UTHREAD_DONE, thread_id: 57, initial_credits: 100, execution_start_time_sec: 1410786298, execution_start_time_usec: 888833, execution_finish_time_sec: 1410786298, execution_finish_time_usec: 889050, interval_given: 500, current execution time: 217, current_credits: 100
Scheduling Thread: thread_id: 61, current_credits: 100, initial_credits: 100, start_time_sec: 1410786298, start_time_usec: 889074, interval_given: 500
 UTHREAD_DONE, elapsed time: 256, start_time: 889074, finish_time:889330 credits:100
UTHREAD_DONE, thread_id: 61, initial_credits: 100, execution_start_time_sec: 1410786298, execution_start_time_usec: 889074, execution_finish_time_sec: 1410786298, execution_finish_time_usec: 889330, interval_given: 500, current execution time: 256, current_credits: 100
Scheduling Thread: thread_id: 65, current_credits: 25, initial_credits: 25, start_time_sec: 1410786298, start_time_usec: 889340, interval_given: 125
 Scheduling Thread: thread_id: 0, current_credits: 25, initial_credits: 25, start_time_sec: 1410786298, start_time_usec: 891614, interval_given: 125
 UTHREAD_DONE, elapsed time: 38, start_time: 891614, finish_time:891652 credits:25
UTHREAD_DONE, thread_id: 0, initial_credits: 25, execution_start_time_sec: 1410786298, execution_start_time_usec: 891614, execution_finish_time_sec: 1410786298, execution_finish_time_usec: 891652, interval_given: 125, current execution time: 38, current_credits: 25
Scheduling Thread: thread_id: 4, current_credits: 25, initial_credits: 25, start_time_sec: 1410786298, start_time_usec: 891665, interval_given: 125
 UTHREAD_DONE, elapsed time: 34, start_time: 891665, finish_time:891699 credits:25
UTHREAD_DONE, thread_id: 4, initial_credits: 25, execution_start_time_sec: 1410786298, execution_start_time_usec: 891665, execution_finish_time_sec: 1410786298, execution_finish_time_usec: 891699, interval_given: 125, current execution time: 34, current_credits: 25
Scheduling Thread: thread_id: 8, current_credits: 50, initial_credits: 50, start_time_sec: 1410786298, start_time_usec: 891715, interval_given: 250
 UTHREAD_DONE, elapsed time: 35, start_time: 891715, finish_time:891750 credits:50
UTHREAD_DONE, thread_id: 8, initial_credits: 50, execution_start_time_sec: 1410786298, execution_start_time_usec: 891715, execution_finish_time_sec: 1410786298, execution_finish_time_usec: 891750, interval_given: 250, current execution time: 35, current_credits: 50
Scheduling Thread: thread_id: 12, current_credits: 50, initial_credits: 50, start_time_sec: 1410786298, start_time_usec: 891761, interval_given: 250
 Going to execute gt_yield()
^^^^^^^^^^^^^^^Inside gt_yield^^^^^^^^^^^^^^
IN GT_YIELD, thread_id: 12, initial_credits: 50, elapsed time: 35, start_time_sec: 1410786298, start_time_usec: 891761, finish_time_sec: 1410786298, finish_time_usec: 891796, credits left: 50, interval_given: 250, ratio: 0.140000, actual_credits_consumed: 7, credits left after gt_yield: 43
Scheduling Thread: thread_id: 12, current_credits: 43, initial_credits: 50, start_time_sec: 1410786298, start_time_usec: 891835, interval_given: 215
 UTHREAD_DONE, elapsed time: 35, start_time: 891835, finish_time:891835 credits:43
UTHREAD_DONE, thread_id: 12, initial_credits: 50, execution_start_time_sec: 1410786298, execution_start_time_usec: 891835, execution_finish_time_sec: 1410786298, execution_finish_time_usec: 891835, interval_given: 215, current execution time: 0, current_credits: 43
Scheduling Thread: thread_id: 16, current_credits: 75, initial_credits: 75, start_time_sec: 1410786298, start_time_usec: 891835, interval_given: 375
 UTHREAD_DONE, elapsed time: 34, start_time: 891835, finish_time:891869 credits:75
UTHREAD_DONE, thread_id: 16, initial_credits: 75, execution_start_time_sec: 1410786298, execution_start_time_usec: 891835, execution_finish_time_sec: 1410786298, execution_finish_time_usec: 891869, interval_given: 375, current execution time: 34, current_credits: 75
Scheduling Thread: thread_id: 20, current_credits: 75, initial_credits: 75, start_time_sec: 1410786298, start_time_usec: 891885, interval_given: 375
 UTHREAD_DONE, elapsed time: 36, start_time: 891885, finish_time:891921 credits:75
UTHREAD_DONE, thread_id: 20, initial_credits: 75, execution_start_time_sec: 1410786298, execution_start_time_usec: 891885, execution_finish_time_sec: 1410786298, execution_finish_time_usec: 891921, interval_given: 375, current execution time: 36, current_credits: 75
Scheduling Thread: thread_id: 24, current_credits: 100, initial_credits: 100, start_time_sec: 1410786298, start_time_usec: 891944, interval_given: 500
 UTHREAD_DONE, elapsed time: 36, start_time: 891944, finish_time:891980 credits:100
UTHREAD_DONE, thread_id: 24, initial_credits: 100, execution_start_time_sec: 1410786298, execution_start_time_usec: 891944, execution_finish_time_sec: 1410786298, execution_finish_time_usec: 891980, interval_given: 500, current execution time: 36, current_credits: 100
Scheduling Thread: thread_id: 28, current_credits: 100, initial_credits: 100, start_time_sec: 1410786298, start_time_usec: 891998, interval_given: 500
 UTHREAD_DONE, elapsed time: 33, start_time: 891998, finish_time:892031 credits:100
UTHREAD_DONE, thread_id: 28, initial_credits: 100, execution_start_time_sec: 1410786298, execution_start_time_usec: 891998, execution_finish_time_sec: 1410786298, execution_finish_time_usec: 892031, interval_given: 500, current execution time: 33, current_credits: 100
Scheduling Thread: thread_id: 32, current_credits: 25, initial_credits: 25, start_time_sec: 1410786298, start_time_usec: 892043, interval_given: 125
 UTHREAD_DONE, elapsed time: 261, start_time: 892043, finish_time:892304 credits:25
************Error: elapsed_time_current > interval_given
start_time_sec: 1410786298, start_time_usec: 892043, finish_time: 1410786298, finish_time_usec: 892304
UTHREAD_DONE, thread_id: 32, initial_credits: 25, execution_start_time_sec: 1410786298, execution_start_time_usec: 892043, execution_finish_time_sec: 1410786298, execution_finish_time_usec: 892304, interval_given: 125, current execution time: 261, current_credits: 25
Scheduling Thread: thread_id: 36, current_credits: 25, initial_credits: 25, start_time_sec: 1410786298, start_time_usec: 892318, interval_given: 125
 UTHREAD_DONE, elapsed time: 321, start_time: 892318, finish_time:892639 credits:25
************Error: elapsed_time_current > interval_given
start_time_sec: 1410786298, start_time_usec: 892318, finish_time: 1410786298, finish_time_usec: 892639
UTHREAD_DONE, thread_id: 36, initial_credits: 25, execution_start_time_sec: 1410786298, execution_start_time_usec: 892318, execution_finish_time_sec: 1410786298, execution_finish_time_usec: 892639, interval_given: 125, current execution time: 321, current_credits: 25
Scheduling Thread: thread_id: 40, current_credits: 50, initial_credits: 50, start_time_sec: 1410786298, start_time_usec: 892659, interval_given: 250
 UTHREAD_DONE, elapsed time: 265, start_time: 892659, finish_time:892924 credits:50
************Error: elapsed_time_current > interval_given
start_time_sec: 1410786298, start_time_usec: 892659, finish_time: 1410786298, finish_time_usec: 892924
UTHREAD_DONE, thread_id: 40, initial_credits: 50, execution_start_time_sec: 1410786298, execution_start_time_usec: 892659, execution_finish_time_sec: 1410786298, execution_finish_time_usec: 892924, interval_given: 250, current execution time: 265, current_credits: 50
Scheduling Thread: thread_id: 44, current_credits: 50, initial_credits: 50, start_time_sec: 1410786298, start_time_usec: 892936, interval_given: 250
 UTHREAD_DONE, elapsed time: 254, start_time: 892936, finish_time:893190 credits:50
************Error: elapsed_time_current > interval_given
start_time_sec: 1410786298, start_time_usec: 892936, finish_time: 1410786298, finish_time_usec: 893190
UTHREAD_DONE, thread_id: 44, initial_credits: 50, execution_start_time_sec: 1410786298, execution_start_time_usec: 892936, execution_finish_time_sec: 1410786298, execution_finish_time_usec: 893190, interval_given: 250, current execution time: 254, current_credits: 50
Scheduling Thread: thread_id: 48, current_credits: 75, initial_credits: 75, start_time_sec: 1410786298, start_time_usec: 893205, interval_given: 375
 UTHREAD_DONE, elapsed time: 272, start_time: 893205, finish_time:893477 credits:75
UTHREAD_DONE, thread_id: 48, initial_credits: 75, execution_start_time_sec: 1410786298, execution_start_time_usec: 893205, execution_finish_time_sec: 1410786298, execution_finish_time_usec: 893477, interval_given: 375, current execution time: 272, current_credits: 75
Scheduling Thread: thread_id: 52, current_credits: 75, initial_credits: 75, start_time_sec: 1410786298, start_time_usec: 893505, interval_given: 375
 UTHREAD_DONE, elapsed time: 271, start_time: 893505, finish_time:893776 credits:75
UTHREAD_DONE, thread_id: 52, initial_credits: 75, execution_start_time_sec: 1410786298, execution_start_time_usec: 893505, execution_finish_time_sec: 1410786298, execution_finish_time_usec: 893776, interval_given: 375, current execution time: 271, current_credits: 75
Scheduling Thread: thread_id: 56, current_credits: 100, initial_credits: 100, start_time_sec: 1410786298, start_time_usec: 893789, interval_given: 500
 UTHREAD_DONE, elapsed time: 262, start_time: 893789, finish_time:894051 credits:100
UTHREAD_DONE, thread_id: 56, initial_credits: 100, execution_start_time_sec: 1410786298, execution_start_time_usec: 893789, execution_finish_time_sec: 1410786298, execution_finish_time_usec: 894051, interval_given: 500, current execution time: 262, current_credits: 100
Scheduling Thread: thread_id: 60, current_credits: 100, initial_credits: 100, start_time_sec: 1410786298, start_time_usec: 894068, interval_given: 500
 UTHREAD_DONE, elapsed time: 260, start_time: 894068, finish_time:894328 credits:100
UTHREAD_DONE, thread_id: 60, initial_credits: 100, execution_start_time_sec: 1410786298, execution_start_time_usec: 894068, execution_finish_time_sec: 1410786298, execution_finish_time_usec: 894328, interval_given: 500, current execution time: 260, current_credits: 100
Scheduling Thread: thread_id: 64, current_credits: 25, initial_credits: 25, start_time_sec: 1410786298, start_time_usec: 894339, interval_given: 125
 Scheduling Thread: thread_id: 2, current_credits: 25, initial_credits: 25, start_time_sec: 1410786298, start_time_usec: 895854, interval_given: 125
 UTHREAD_DONE, elapsed time: 35, start_time: 895854, finish_time:895889 credits:25
UTHREAD_DONE, thread_id: 2, initial_credits: 25, execution_start_time_sec: 1410786298, execution_start_time_usec: 895854, execution_finish_time_sec: 1410786298, execution_finish_time_usec: 895889, interval_given: 125, current execution time: 35, current_credits: 25
Scheduling Thread: thread_id: 6, current_credits: 25, initial_credits: 25, start_time_sec: 1410786298, start_time_usec: 895906, interval_given: 125
 UTHREAD_DONE, elapsed time: 33, start_time: 895906, finish_time:895939 credits:25
UTHREAD_DONE, thread_id: 6, initial_credits: 25, execution_start_time_sec: 1410786298, execution_start_time_usec: 895906, execution_finish_time_sec: 1410786298, execution_finish_time_usec: 895939, interval_given: 125, current execution time: 33, current_credits: 25
Scheduling Thread: thread_id: 10, current_credits: 50, initial_credits: 50, start_time_sec: 1410786298, start_time_usec: 895954, interval_given: 250
 UTHREAD_DONE, elapsed time: 35, start_time: 895954, finish_time:895989 credits:50
UTHREAD_DONE, thread_id: 10, initial_credits: 50, execution_start_time_sec: 1410786298, execution_start_time_usec: 895954, execution_finish_time_sec: 1410786298, execution_finish_time_usec: 895989, interval_given: 250, current execution time: 35, current_credits: 50
Scheduling Thread: thread_id: 14, current_credits: 50, initial_credits: 50, start_time_sec: 1410786298, start_time_usec: 895999, interval_given: 250
 UTHREAD_DONE, elapsed time: 34, start_time: 895999, finish_time:896033 credits:50
UTHREAD_DONE, thread_id: 14, initial_credits: 50, execution_start_time_sec: 1410786298, execution_start_time_usec: 895999, execution_finish_time_sec: 1410786298, execution_finish_time_usec: 896033, interval_given: 250, current execution time: 34, current_credits: 50
Scheduling Thread: thread_id: 18, current_credits: 75, initial_credits: 75, start_time_sec: 1410786298, start_time_usec: 896048, interval_given: 375
 UTHREAD_DONE, elapsed time: 35, start_time: 896048, finish_time:896083 credits:75
UTHREAD_DONE, thread_id: 18, initial_credits: 75, execution_start_time_sec: 1410786298, execution_start_time_usec: 896048, execution_finish_time_sec: 1410786298, execution_finish_time_usec: 896083, interval_given: 375, current execution time: 35, current_credits: 75
Scheduling Thread: thread_id: 22, current_credits: 75, initial_credits: 75, start_time_sec: 1410786298, start_time_usec: 896105, interval_given: 375
 UTHREAD_DONE, elapsed time: 36, start_time: 896105, finish_time:896141 credits:75
UTHREAD_DONE, thread_id: 22, initial_credits: 75, execution_start_time_sec: 1410786298, execution_start_time_usec: 896105, execution_finish_time_sec: 1410786298, execution_finish_time_usec: 896141, interval_given: 375, current execution time: 36, current_credits: 75
Scheduling Thread: thread_id: 26, current_credits: 100, initial_credits: 100, start_time_sec: 1410786298, start_time_usec: 896155, interval_given: 500
 UTHREAD_DONE, elapsed time: 33, start_time: 896155, finish_time:896188 credits:100
UTHREAD_DONE, thread_id: 26, initial_credits: 100, execution_start_time_sec: 1410786298, execution_start_time_usec: 896155, execution_finish_time_sec: 1410786298, execution_finish_time_usec: 896188, interval_given: 500, current execution time: 33, current_credits: 100
Scheduling Thread: thread_id: 30, current_credits: 100, initial_credits: 100, start_time_sec: 1410786298, start_time_usec: 896205, interval_given: 500
 UTHREAD_DONE, elapsed time: 33, start_time: 896205, finish_time:896238 credits:100
UTHREAD_DONE, thread_id: 30, initial_credits: 100, execution_start_time_sec: 1410786298, execution_start_time_usec: 896205, execution_finish_time_sec: 1410786298, execution_finish_time_usec: 896238, interval_given: 500, current execution time: 33, current_credits: 100
Scheduling Thread: thread_id: 34, current_credits: 25, initial_credits: 25, start_time_sec: 1410786298, start_time_usec: 896249, interval_given: 125
 UTHREAD_DONE, elapsed time: 264, start_time: 896249, finish_time:896513 credits:25
************Error: elapsed_time_current > interval_given
start_time_sec: 1410786298, start_time_usec: 896249, finish_time: 1410786298, finish_time_usec: 896513
UTHREAD_DONE, thread_id: 34, initial_credits: 25, execution_start_time_sec: 1410786298, execution_start_time_usec: 896249, execution_finish_time_sec: 1410786298, execution_finish_time_usec: 896513, interval_given: 125, current execution time: 264, current_credits: 25
Scheduling Thread: thread_id: 38, current_credits: 25, initial_credits: 25, start_time_sec: 1410786298, start_time_usec: 896542, interval_given: 125
 UTHREAD_DONE, elapsed time: 272, start_time: 896542, finish_time:896814 credits:25
************Error: elapsed_time_current > interval_given
start_time_sec: 1410786298, start_time_usec: 896542, finish_time: 1410786298, finish_time_usec: 896814
UTHREAD_DONE, thread_id: 38, initial_credits: 25, execution_start_time_sec: 1410786298, execution_start_time_usec: 896542, execution_finish_time_sec: 1410786298, execution_finish_time_usec: 896814, interval_given: 125, current execution time: 272, current_credits: 25
Scheduling Thread: thread_id: 42, current_credits: 50, initial_credits: 50, start_time_sec: 1410786298, start_time_usec: 896840, interval_given: 250
 UTHREAD_DONE, elapsed time: 256, start_time: 896840, finish_time:897096 credits:50
************Error: elapsed_time_current > interval_given
start_time_sec: 1410786298, start_time_usec: 896840, finish_time: 1410786298, finish_time_usec: 897096
UTHREAD_DONE, thread_id: 42, initial_credits: 50, execution_start_time_sec: 1410786298, execution_start_time_usec: 896840, execution_finish_time_sec: 1410786298, execution_finish_time_usec: 897096, interval_given: 250, current execution time: 256, current_credits: 50
Scheduling Thread: thread_id: 46, current_credits: 50, initial_credits: 50, start_time_sec: 1410786298, start_time_usec: 897112, interval_given: 250
 UTHREAD_DONE, elapsed time: 255, start_time: 897112, finish_time:897367 credits:50
************Error: elapsed_time_current > interval_given
start_time_sec: 1410786298, start_time_usec: 897112, finish_time: 1410786298, finish_time_usec: 897367
UTHREAD_DONE, thread_id: 46, initial_credits: 50, execution_start_time_sec: 1410786298, execution_start_time_usec: 897112, execution_finish_time_sec: 1410786298, execution_finish_time_usec: 897367, interval_given: 250, current execution time: 255, current_credits: 50
Scheduling Thread: thread_id: 50, current_credits: 75, initial_credits: 75, start_time_sec: 1410786298, start_time_usec: 897398, interval_given: 375
 UTHREAD_DONE, elapsed time: 269, start_time: 897398, finish_time:897667 credits:75
UTHREAD_DONE, thread_id: 50, initial_credits: 75, execution_start_time_sec: 1410786298, execution_start_time_usec: 897398, execution_finish_time_sec: 1410786298, execution_finish_time_usec: 897667, interval_given: 375, current execution time: 269, current_credits: 75
Scheduling Thread: thread_id: 54, current_credits: 75, initial_credits: 75, start_time_sec: 1410786298, start_time_usec: 897679, interval_given: 375
 UTHREAD_DONE, elapsed time: 264, start_time: 897679, finish_time:897943 credits:75
UTHREAD_DONE, thread_id: 54, initial_credits: 75, execution_start_time_sec: 1410786298, execution_start_time_usec: 897679, execution_finish_time_sec: 1410786298, execution_finish_time_usec: 897943, interval_given: 375, current execution time: 264, current_credits: 75
Scheduling Thread: thread_id: 58, current_credits: 100, initial_credits: 100, start_time_sec: 1410786298, start_time_usec: 897959, interval_given: 500
 UTHREAD_DONE, elapsed time: 256, start_time: 897959, finish_time:898215 credits:100
UTHREAD_DONE, thread_id: 58, initial_credits: 100, execution_start_time_sec: 1410786298, execution_start_time_usec: 897959, execution_finish_time_sec: 1410786298, execution_finish_time_usec: 898215, interval_given: 500, current execution time: 256, current_credits: 100
Scheduling Thread: thread_id: 62, current_credits: 100, initial_credits: 100, start_time_sec: 1410786298, start_time_usec: 898230, interval_given: 500
 UTHREAD_DONE, elapsed time: 259, start_time: 898230, finish_time:898489 credits:100
UTHREAD_DONE, thread_id: 62, initial_credits: 100, execution_start_time_sec: 1410786298, execution_start_time_usec: 898230, execution_finish_time_sec: 1410786298, execution_finish_time_usec: 898489, interval_given: 500, current execution time: 259, current_credits: 100
Scheduling Thread: thread_id: 66, current_credits: 25, initial_credits: 25, start_time_sec: 1410786298, start_time_usec: 898505, interval_given: 125
 Scheduling Thread: thread_id: 3, current_credits: 25, initial_credits: 25, start_time_sec: 1410786298, start_time_usec: 901498, interval_given: 125
 UTHREAD_DONE, elapsed time: 37, start_time: 901498, finish_time:901535 credits:25
UTHREAD_DONE, thread_id: 3, initial_credits: 25, execution_start_time_sec: 1410786298, execution_start_time_usec: 901498, execution_finish_time_sec: 1410786298, execution_finish_time_usec: 901535, interval_given: 125, current execution time: 37, current_credits: 25
Scheduling Thread: thread_id: 7, current_credits: 25, initial_credits: 25, start_time_sec: 1410786298, start_time_usec: 901581, interval_given: 125
 UTHREAD_DONE, elapsed time: 11, start_time: 901581, finish_time:901592 credits:25
UTHREAD_DONE, thread_id: 7, initial_credits: 25, execution_start_time_sec: 1410786298, execution_start_time_usec: 901581, execution_finish_time_sec: 1410786298, execution_finish_time_usec: 901592, interval_given: 125, current execution time: 11, current_credits: 25
Scheduling Thread: thread_id: 11, current_credits: 50, initial_credits: 50, start_time_sec: 1410786298, start_time_usec: 901606, interval_given: 250
 UTHREAD_DONE, elapsed time: 35, start_time: 901606, finish_time:901641 credits:50
UTHREAD_DONE, thread_id: 11, initial_credits: 50, execution_start_time_sec: 1410786298, execution_start_time_usec: 901606, execution_finish_time_sec: 1410786298, execution_finish_time_usec: 901641, interval_given: 250, current execution time: 35, current_credits: 50
Scheduling Thread: thread_id: 15, current_credits: 50, initial_credits: 50, start_time_sec: 1410786298, start_time_usec: 901652, interval_given: 250
 UTHREAD_DONE, elapsed time: 82, start_time: 901652, finish_time:901734 credits:50
UTHREAD_DONE, thread_id: 15, initial_credits: 50, execution_start_time_sec: 1410786298, execution_start_time_usec: 901652, execution_finish_time_sec: 1410786298, execution_finish_time_usec: 901734, interval_given: 250, current execution time: 82, current_credits: 50
Scheduling Thread: thread_id: 19, current_credits: 75, initial_credits: 75, start_time_sec: 1410786298, start_time_usec: 901752, interval_given: 375
 UTHREAD_DONE, elapsed time: 81, start_time: 901752, finish_time:901833 credits:75
UTHREAD_DONE, thread_id: 19, initial_credits: 75, execution_start_time_sec: 1410786298, execution_start_time_usec: 901752, execution_finish_time_sec: 1410786298, execution_finish_time_usec: 901833, interval_given: 375, current execution time: 81, current_credits: 75
Scheduling Thread: thread_id: 23, current_credits: 75, initial_credits: 75, start_time_sec: 1410786298, start_time_usec: 901833, interval_given: 375
 UTHREAD_DONE, elapsed time: 0, start_time: 901833, finish_time:901833 credits:75
UTHREAD_DONE, thread_id: 23, initial_credits: 75, execution_start_time_sec: 1410786298, execution_start_time_usec: 901833, execution_finish_time_sec: 1410786298, execution_finish_time_usec: 901833, interval_given: 375, current execution time: 0, current_credits: 75
Scheduling Thread: thread_id: 27, current_credits: 100, initial_credits: 100, start_time_sec: 1410786298, start_time_usec: 901846, interval_given: 500
 UTHREAD_DONE, elapsed time: 35, start_time: 901846, finish_time:901881 credits:100
UTHREAD_DONE, thread_id: 27, initial_credits: 100, execution_start_time_sec: 1410786298, execution_start_time_usec: 901846, execution_finish_time_sec: 1410786298, execution_finish_time_usec: 901881, interval_given: 500, current execution time: 35, current_credits: 100
Scheduling Thread: thread_id: 31, current_credits: 100, initial_credits: 100, start_time_sec: 1410786298, start_time_usec: 901893, interval_given: 500
 UTHREAD_DONE, elapsed time: 34, start_time: 901893, finish_time:901927 credits:100
UTHREAD_DONE, thread_id: 31, initial_credits: 100, execution_start_time_sec: 1410786298, execution_start_time_usec: 901893, execution_finish_time_sec: 1410786298, execution_finish_time_usec: 901927, interval_given: 500, current execution time: 34, current_credits: 100
Scheduling Thread: thread_id: 35, current_credits: 25, initial_credits: 25, start_time_sec: 1410786298, start_time_usec: 901938, interval_given: 125
 UTHREAD_DONE, elapsed time: 264, start_time: 901938, finish_time:902202 credits:25
************Error: elapsed_time_current > interval_given
start_time_sec: 1410786298, start_time_usec: 901938, finish_time: 1410786298, finish_time_usec: 902202
UTHREAD_DONE, thread_id: 35, initial_credits: 25, execution_start_time_sec: 1410786298, execution_start_time_usec: 901938, execution_finish_time_sec: 1410786298, execution_finish_time_usec: 902202, interval_given: 125, current execution time: 264, current_credits: 25
Scheduling Thread: thread_id: 39, current_credits: 25, initial_credits: 25, start_time_sec: 1410786298, start_time_usec: 902217, interval_given: 125
 UTHREAD_DONE, elapsed time: 364, start_time: 902217, finish_time:902581 credits:25
************Error: elapsed_time_current > interval_given
start_time_sec: 1410786298, start_time_usec: 902217, finish_time: 1410786298, finish_time_usec: 902581
UTHREAD_DONE, thread_id: 39, initial_credits: 25, execution_start_time_sec: 1410786298, execution_start_time_usec: 902217, execution_finish_time_sec: 1410786298, execution_finish_time_usec: 902581, interval_given: 125, current execution time: 364, current_credits: 25
Scheduling Thread: thread_id: 43, current_credits: 50, initial_credits: 50, start_time_sec: 1410786298, start_time_usec: 902581, interval_given: 250
 UTHREAD_DONE, elapsed time: 259, start_time: 902581, finish_time:902840 credits:50
************Error: elapsed_time_current > interval_given
start_time_sec: 1410786298, start_time_usec: 902581, finish_time: 1410786298, finish_time_usec: 902840
UTHREAD_DONE, thread_id: 43, initial_credits: 50, execution_start_time_sec: 1410786298, execution_start_time_usec: 902581, execution_finish_time_sec: 1410786298, execution_finish_time_usec: 902840, interval_given: 250, current execution time: 259, current_credits: 50
Scheduling Thread: thread_id: 47, current_credits: 50, initial_credits: 50, start_time_sec: 1410786298, start_time_usec: 902904, interval_given: 250
 UTHREAD_DONE, elapsed time: 260, start_time: 902904, finish_time:903164 credits:50
************Error: elapsed_time_current > interval_given
start_time_sec: 1410786298, start_time_usec: 902904, finish_time: 1410786298, finish_time_usec: 903164
UTHREAD_DONE, thread_id: 47, initial_credits: 50, execution_start_time_sec: 1410786298, execution_start_time_usec: 902904, execution_finish_time_sec: 1410786298, execution_finish_time_usec: 903164, interval_given: 250, current execution time: 260, current_credits: 50
Scheduling Thread: thread_id: 51, current_credits: 75, initial_credits: 75, start_time_sec: 1410786298, start_time_usec: 903177, interval_given: 375
 UTHREAD_DONE, elapsed time: 262, start_time: 903177, finish_time:903439 credits:75
UTHREAD_DONE, thread_id: 51, initial_credits: 75, execution_start_time_sec: 1410786298, execution_start_time_usec: 903177, execution_finish_time_sec: 1410786298, execution_finish_time_usec: 903439, interval_given: 375, current execution time: 262, current_credits: 75
Scheduling Thread: thread_id: 55, current_credits: 75, initial_credits: 75, start_time_sec: 1410786298, start_time_usec: 903450, interval_given: 375
 UTHREAD_DONE, elapsed time: 275, start_time: 903450, finish_time:903725 credits:75
UTHREAD_DONE, thread_id: 55, initial_credits: 75, execution_start_time_sec: 1410786298, execution_start_time_usec: 903450, execution_finish_time_sec: 1410786298, execution_finish_time_usec: 903725, interval_given: 375, current execution time: 275, current_credits: 75
Scheduling Thread: thread_id: 59, current_credits: 100, initial_credits: 100, start_time_sec: 1410786298, start_time_usec: 903742, interval_given: 500
 UTHREAD_DONE, elapsed time: 257, start_time: 903742, finish_time:903999 credits:100
UTHREAD_DONE, thread_id: 59, initial_credits: 100, execution_start_time_sec: 1410786298, execution_start_time_usec: 903742, execution_finish_time_sec: 1410786298, execution_finish_time_usec: 903999, interval_given: 500, current execution time: 257, current_credits: 100
Scheduling Thread: thread_id: 63, current_credits: 100, initial_credits: 100, start_time_sec: 1410786298, start_time_usec: 904010, interval_given: 500
 UTHREAD_DONE, elapsed time: 255, start_time: 904010, finish_time:904265 credits:100
UTHREAD_DONE, thread_id: 63, initial_credits: 100, execution_start_time_sec: 1410786298, execution_start_time_usec: 904010, execution_finish_time_sec: 1410786298, execution_finish_time_usec: 904265, interval_given: 500, current execution time: 255, current_credits: 100
Scheduling Thread: thread_id: 67, current_credits: 25, initial_credits: 25, start_time_sec: 1410786298, start_time_usec: 904280, interval_given: 125
 Inside ksched_credit
Scheduling Thread: thread_id: 71, current_credits: 25, initial_credits: 25, start_time_sec: 1410786298, start_time_usec: 905483, interval_given: 125
 Inside ksched_credit
Scheduling Thread: thread_id: 67, current_credits: 25, initial_credits: 25, start_time_sec: 1410786298, start_time_usec: 907473, interval_given: 125
 Inside ksched_credit
Scheduling Thread: thread_id: 69, current_credits: 25, initial_credits: 25, start_time_sec: 1410786298, start_time_usec: 934731, interval_given: 125
 Inside ksched_credit
Scheduling Thread: thread_id: 65, current_credits: 25, initial_credits: 25, start_time_sec: 1410786298, start_time_usec: 936717, interval_given: 125
 UTHREAD_DONE, elapsed time: 864, start_time: 936717, finish_time:937581 credits:25
************Error: elapsed_time_current > interval_given
start_time_sec: 1410786298, start_time_usec: 936717, finish_time: 1410786298, finish_time_usec: 937581
UTHREAD_DONE, thread_id: 65, initial_credits: 25, execution_start_time_sec: 1410786298, execution_start_time_usec: 936717, execution_finish_time_sec: 1410786298, execution_finish_time_usec: 937581, interval_given: 125, current execution time: 864, current_credits: 25
Scheduling Thread: thread_id: 69, current_credits: 25, initial_credits: 25, start_time_sec: 1410786298, start_time_usec: 937581, interval_given: 125
 UTHREAD_DONE, elapsed time: 252, start_time: 937581, finish_time:937833 credits:25
************Error: elapsed_time_current > interval_given
start_time_sec: 1410786298, start_time_usec: 937581, finish_time: 1410786298, finish_time_usec: 937833
UTHREAD_DONE, thread_id: 69, initial_credits: 25, execution_start_time_sec: 1410786298, execution_start_time_usec: 937581, execution_finish_time_sec: 1410786298, execution_finish_time_usec: 937833, interval_given: 125, current execution time: 252, current_credits: 25
Scheduling Thread: thread_id: 73, current_credits: 50, initial_credits: 50, start_time_sec: 1410786298, start_time_usec: 937833, interval_given: 250
 Inside ksched_credit
Scheduling Thread: thread_id: 68, current_credits: 25, initial_credits: 25, start_time_sec: 1410786298, start_time_usec: 943607, interval_given: 125
 Inside ksched_credit
Scheduling Thread: thread_id: 64, current_credits: 25, initial_credits: 25, start_time_sec: 1410786298, start_time_usec: 945592, interval_given: 125
 UTHREAD_DONE, elapsed time: 39109, start_time: 907473, finish_time:946582 credits:25
************Error: elapsed_time_current > interval_given
start_time_sec: 1410786298, start_time_usec: 907473, finish_time: 1410786298, finish_time_usec: 946582
UTHREAD_DONE, thread_id: 67, initial_credits: 25, execution_start_time_sec: 1410786298, execution_start_time_usec: 907473, execution_finish_time_sec: 1410786298, execution_finish_time_usec: 946582, interval_given: 125, current execution time: 39109, current_credits: 25
UTHREAD_DONE, elapsed time: 1018, start_time: 945592, finish_time:946610 credits:25
************Error: elapsed_time_current > interval_given
start_time_sec: 1410786298, start_time_usec: 945592, finish_time: 1410786298, finish_time_usec: 946610
UTHREAD_DONE, thread_id: 64, initial_credits: 25, execution_start_time_sec: 1410786298, execution_start_time_usec: 945592, execution_finish_time_sec: 1410786298, execution_finish_time_usec: 946610, interval_given: 125, current execution time: 1018, current_credits: 25
Scheduling Thread: thread_id: 71, current_credits: 25, initial_credits: 25, start_time_sec: 1410786298, start_time_usec: 946610, interval_given: 125
