Before ksched INFO INIT
BEFORE KTHREAD_INIT
Kthread tid: 5989, pid: 5989
Before kthread_credit
After kthread_credit
Before kthread_init runqueue
after kthread_init runqueue
after cpu_affinit
after yield
AFTER KTHREAD_INIT
AFTER SIGHANDLER
num_cpus: 4
INITIALISING VIRTUAL processors
AFTER MALLCO
INSIDE KTHREAD_CREATE
TID of the new kthread: 5991
kthread(1) created !!
INITIALISING VIRTUAL processors
AFTER MALLCO
INSIDE KTHREAD_CREATE
TID of the new kthread: 5992
kthread(2) created !!
INITIALISING VIRTUAL processors
AFTER MALLCO
INSIDE KTHREAD_CREATE
TID of the new kthread: 5993
kthread(3) created !!
Kthread tid: 5991, pid: 5991
Before kthread_credit
After kthread_credit
Before kthread_init runqueue
after kthread_init runqueue
Kthread tid: 5992, pid: 5992
Before kthread_credit
After kthread_credit
Before kthread_init runqueue
after kthread_init runqueue
Kthread tid: 5993, pid: 5993
Before kthread_credit
After kthread_credit
Before kthread_init runqueue
after kthread_init runqueue
after cpu_affinit
after cpu_affinit
after cpu_affinit
after yield
after yield
after yield
group_id: 0, current_row: 0, rows_per_thread: 4, size: 32, credits: 25, inx: 0, NUM_THREADS: 128
Before alloting start time
After alloting start time
group_id: 0, current_row: 4, rows_per_thread: 4, size: 32, credits: 25, inx: 1, NUM_THREADS: 128
Before alloting start time
After alloting start time
group_id: 0, current_row: 8, rows_per_thread: 4, size: 32, credits: 25, inx: 2, NUM_THREADS: 128
Before alloting start time
After alloting start time
group_id: 0, current_row: 12, rows_per_thread: 4, size: 32, credits: 25, inx: 3, NUM_THREADS: 128
Before alloting start time
After alloting start time
group_id: 0, current_row: 16, rows_per_thread: 4, size: 32, credits: 25, inx: 4, NUM_THREADS: 128
Before alloting start time
After alloting start time
group_id: 0, current_row: 20, rows_per_thread: 4, size: 32, credits: 25, inx: 5, NUM_THREADS: 128
Before alloting start time
After alloting start time
group_id: 0, current_row: 24, rows_per_thread: 4, size: 32, credits: 25, inx: 6, NUM_THREADS: 128
Before alloting start time
After alloting start time
group_id: 0, current_row: 28, rows_per_thread: 4, size: 32, credits: 25, inx: 7, NUM_THREADS: 128
Before alloting start time
After alloting start time
group_id: 1, current_row: 0, rows_per_thread: 4, size: 32, credits: 50, inx: 8, NUM_THREADS: 128
Before alloting start time
After alloting start time
group_id: 1, current_row: 4, rows_per_thread: 4, size: 32, credits: 50, inx: 9, NUM_THREADS: 128
Before alloting start time
After alloting start time
group_id: 1, current_row: 8, rows_per_thread: 4, size: 32, credits: 50, inx: 10, NUM_THREADS: 128
Before alloting start time
After alloting start time
group_id: 1, current_row: 12, rows_per_thread: 4, size: 32, credits: 50, inx: 11, NUM_THREADS: 128
Scheduling Thread: thread_id: 2, current_credits: 25, initial_credits: Be, start_time_sec: 1410798Aft, start_time_usec: 418984, interval_given: 125
 1, current_row: 16, rows_per_thread: 4, size: 32, credits: 50, inx: 12, NUM_THREADS: 128
Before alloting start time
After alloting start time
group_id: 1, current_row: 20, rows_per_thread: 4, size: 32, credits: 50, inx: 13, NUM_THREADS: 128
Before alloting start time
After alloting start time
group_id: 1, current_row: 24, rows_per_thread: 4, size: 32, credits: 50, inx: 14, NUM_THREADS: 128
Before alloting start time
After alloting start time
group_id: 1, current_row: 28, rows_per_thread: 4, size: 32, credits: 50, inx: 15, NUM_THREADS: 128
Before alloting start time
After alloting start time
group_id: 2, current_row: 0, rows_per_thread: 4, size: 32, credits: 75, inx: 16, NUM_THREADS: 128
Before alloting start time
After alloting start time
group_id: 2, current_row: 4, rows_per_thread: 4, size: 32, credits: 75, inx: 17, NUM_THREADS: 128
Before alloting start time
After alloting start time
group_id: 2, current_row: 8, rows_per_thread: 4, size: 32, credits: 75, inx: 18, NUM_THREADS: 128
Before alloting start time
After alloting start time
group_id: 2, current_row: 12, rows_per_thread: 4, size: 32,Before ksched INFO INIT
BEFORE KTHREAD_INIT
Kthread tid: 5989, pid: 5989
Before kthread_credit
After kthread_credit
Before kthread_init runqueue
after kthread_init runqueue
after cpu_affinit
after yield
AFTER KTHREAD_INIT
AFTER SIGHANDLER
num_cpus: 4
INITIALISING VIRTUAL processors
AFTER MALLCO
INSIDE KTHREAD_CREATE
TID of the new kthread: 5991
kthread(1) created !!
INITIALISING VIRTUAL processors
AFTER MALLCO
INSIDE KTHREAD_CREATE
TID of the new kthread: 5992
kthread(2) created !!
INITIALISING VIRTUAL processors
AFTER MALLCO
INSIDE KTHREAD_CREATE
TID of the new kthread: 5993
kthread(3) created !!
Kthread tid: 5991, pid: 5991
Before kthread_credit
After kthread_credit
Before kthread_init runqueue
after kthread_init runqueue
Kthread tid: 5992, pid: 5992
Before kthread_credit
After kthread_credit
Before kthread_init runqueue
after kthread_init runqueue
Kthread tid: 5993, pid: 5993
Before kthread_credit
After kthread_credit
Before kthread_init runqueue
after kthread_init runqueue
after cpu_affinit
after cpu_affinit
after cpu_affinit
after yield
after yield
after yield
group_id: 0, current_row: 0, rows_per_thread: 4, size: 32, credits: 25, inx: 0, NUM_THREADS: 128
Before alloting start time
After alloting start time
group_id: 0, current_row: 4, rows_per_thread: 4, size: 32, credits: 25, inx: 1, NUM_THREADS: 128
Before alloting start time
After alloting start time
group_id: 0, current_row: 8, rows_per_thread: 4, size: 32, credits: 25, inx: 2, NUM_THREADS: 128
Before alloting start time
After alloting start time
group_id: 0, current_row: 12, rows_per_thread: 4, size: 32, credits: 25, inx: 3, NUM_THREADS: 128
Before alloting start time
After alloting start time
group_id: 0, current_row: 16, rows_per_thread: 4, size: 32, credits: 25, inx: 4, NUM_THREADS: 128
Before alloting start time
After alloting start time
group_id: 0, current_row: 20, rows_per_thread: 4, size: 32, credits: 25, inx: 5, NUM_THREADS: 128
Before alloting start time
After alloting start time
group_id: 0, current_row: 24, rows_per_thread: 4, size: 32, credits: 25, inx: 6, NUM_THREADS: 128
Before alloting start time
After alloting start time
group_id: 0, current_row: 28, rows_per_thread: 4, size: 32, credits: 25, inx: 7, NUM_THREADS: 128
Before alloting start time
After alloting start time
group_id: 1, current_row: 0, rows_per_thread: 4, size: 32, credits: 50, inx: 8, NUM_THREADS: 128
Before alloting start time
After alloting start time
group_id: 1, current_row: 4, rows_per_thread: 4, size: 32, credits: 50, inx: 9, NUM_THREADS: 128
Before alloting start time
After alloting start time
group_id: 1, current_row: 8, rows_per_thread: 4, size: 32, credits: 50, inx: 10, NUM_THREADS: 128
Before alloting start time
After alloting start time
group_id: 1, current_row: 12, rows_per_thread: 4, size: 32, credits: 50, inx: 11, NUM_THREADS: 128
Scheduling Thread: thread_id: 2, current_credits: 25, initial_credits: Be, start_time_sec: 1410798Aft, start_time_usec: 418984, interval_given: 125
 1, current_row: 16, rows_per_thread: 4, size: 32, credits: 50, inx: 12, NUM_THREADS: 128
Before alloting start time
After alloting start time
group_id: 1, current_row: 20, rows_per_thread: 4, size: 32, credits: 50, inx: 13, NUM_THREADS: 128
Before alloting start time
After alloting start time
group_id: 1, current_row: 24, rows_per_thread: 4, size: 32, credits: 50, inx: 14, NUM_THREADS: 128
Before alloting start time
After alloting start time
group_id: 1, current_row: 28, rows_per_thread: 4, size: 32, credits: 50, inx: 15, NUM_THREADS: 128
Before alloting start time
After alloting start time
group_id: 2, current_row: 0, rows_per_thread: 4, size: 32, credits: 75, inx: 16, NUM_THREADS: 128
Before alloting start time
After alloting start time
group_id: 2, current_row: 4, rows_per_thread: 4, size: 32, credits: 75, inx: 17, NUM_THREADS: 128
Before alloting start time
After alloting start time
group_id: 2, current_row: 8, rows_per_thread: 4, size: 32, credits: 75, inx: 18, NUM_THREADS: 128
Before alloting start time
After alloting start time
group_id: 2, current_row: 12, rows_per_thread: 4, size: 32, credits: 75, inx: 19, NUM_THREADS: 128
Before alloting start time
After alloting start time
group_id: 2, current_row: 16, rows_per_thread: 4, size: 32, credits: 75, inx: 20, NUM_THREADS: 128
Before alloting start time
After alloting start time
group_id: 2, current_row: 20, rows_per_thread: 4, size: 32, credits: 75, inx: 21, NUM_THREADS: 128
UTHREAD_DONE, elapsed time: 39, start_time: 419146, finish_time:419185 credits:50
UTHREAD_DONE, thread_id: 14, initial_credits: 50, execution_start_time_sec: 1410798538, execution_start_time_usec: 419146, execution_finish_time_sec: 1410798538, execution_finish_time_usec: 419185, interval_given: 250, current execution time: 39, current_credits: 50
Before alloting start time
After alloting start time
group_id: 2, current_row: 24, rows_per_thread: 4, size: 32, credits: 75, inx: 22, NUM_THREADS: 128
Before alloting start time
After alloting start time
group_id: 2, current_row: 28, rows_per_thread: 4, size: 32, credits: 75, inx: 23, NUM_THREADS: 128
Before alloting start time
After alloting start time
group_id: 3, current_row: 0, rows_per_thread: 4, size: 32, credits: 100, inx: 24, NUM_THREADS: 128
Before alloting start time
After alloting start time
group_id: 3, current_row: 4, rows_per_thread: 4, size: 32, credits: 100, inx: 25, NUM_THREADS: 128
cheduling Thread: thread_id: 18, current_credits: 75, initial_credits: 75, start_time_sec: 1410798538, start_time_usec: 419206, interval_given: 375
 Before alloting start time
After alloting start time
group_id: 3, current_row: 8, rows_per_thread: 4, size: 32, credits: 100, inx: 26, NUM_THREADS: 128
Before alloting start time
After alloting start time
group_id: 3, current_row: 12, rows_per_thread: 4, size: 32, credits: 100, inx: 27, NUM_THREADS: 128
Before alloting start time
After alloting start time
group_id: 3, current_row: 16, rows_per_thread: 4, size: 32, credits: 100, inx: 28, NUM_THREADS: 128
Before alloting start time
After alloting start time
group_id: 3, current_row: 20, rows_per_thread: 4, size: 32, credits: 100, inx: 29, NUM_THREADS: 128
Before alloting start time
After alloting start time
group_id: 3, current_row: 24, rows_per_thread: 4, size: 32, credits: 100, inx: 30, NUM_THREADS: 128
Before alloting start time
After alloting start time
group_id: 3, current_row: 28, rows_per_thread: 4, size: 32, credits: 100, inx: 31, NUM_THREADS: 128
Before alloting start time
After alloting start time
group_id: 4, current_row: 0, rows_per_thread: 8, size: 64, credits: 25, inx: 32, NUM_THREADS: 128
Before alloting start time
After alloting start time
group_id: 4, current_row: 8, rows_per_thread: 8, size: 64, credits: 25, inx: 33, NUM_THREADS: 128
Before alloting start time
After alloting start time
group_id: 4, current_row: 16, rows_per_thread: 8, size: 64, credits: 25, inx: 34, NUM_THREADS: 128
Before alloting start time
After alloting start time
group_id: 4, current_row: 24, rows_per_thread: 8, size: 64, credits: 25, inx: 35, NUM_THREADS: 128
Before alloting start time
After alloting start time
group_id: 4, current_row: 32, rows_per_thread: 8, size: 64, credits: UT, inx: 36, NUM_THREADS: : 37, start_time: 419206, finish_time:128
43 credits:75
UTHREAD_DONE, thread_id: 18, initial_credits: 75, execution_start_time_sec: 1410798538, execution_start_time_usec: 419206, execution_finish_time_sec: 1410798538, execution_finish_time_usec: 419243, interval_given: 375, current execution time: 37, current_credits: 75
Before alloting start time
After alloting start time
group_id: 4, current_row: 40, rows_per_thread: 8, size: 64, credits: 25, inx: 37, NUM_THREADS: 128
Before alloting start time
After alloting start time
group_id: 4, current_row: 48, rows_per_thread: 8, size: 64, credits: 25, inx: 38, NUM_THREADS: 128
Before alloting start time
After alloting start time
group_id: 4, current_row: 56, rows_per_thread: 8, size: 64, credits: 25, inx: 39, NUM_THREADS: 128
Before alloting start time
After alloting start time
group_id: 5, current_row: 0, rows_per_thread: 8, size: 64, credits: 50, inx: g Thread: thread_id: 22, current_credits: 40128
itial_credits: 75, start_time_sec: 1410798538, start_time_usec: 419260, interval_given: 375
 Before alloting start time
After alloting start time
group_id: 5, current_row: 8, rows_per_thread: 8, size: 64, credits: 50, inx: 41, NUM_THREADS: 128
Before alloting start time
After alloting start time
group_id: 5, current_row: 16, rows_per_thread: 8, size: 64, credits: 50, inx: 42, NUM_THREADS: 128
Before alloting start time
After alloting start time
group_id: 5, current_row: 24, rows_per_thread: 8, size: 64, credits: 50, inx: 43, NUM_THREADS: 128
Before alloting start time
After alloting start time
group_id: 5, current_row: 32, rows_per_thread: 8, size: 64, credits: 50, inx: 44, NUM_THREADS: 128
Before alloting start time
After alloting start time
group_id: 5, current_row: 40, rows_per_thread: 8, size: 64, credits: 50, inx: 45, NUM_THREADS: 128
Before alloting start time
After alloting start time
group_id: 5, current_row: 48, rows_per_thread: 8, size: 64, credits: 50, inx: 46, NUM_THREADS: 128
Before alloting start time
After alloting start time
group_id: 5, current_row: 56, rows_per_thread: 8, size: 64, credits: 50, inx: 47, NUM_THREADS: 128
Before alloting start time
After alloting start time
group_id: 6, current_row: 0, rows_per_thread: 8, size: 64, credits: 75, inx: 48, NUM_THREADS: 128
Before alloting start time
After alloting start time
group_id: 6, current_row: 8, rows_per_thread: 8, size: 64, credits: 75, inx: 49, NUM_THREADS: 128
Before alloting start time
After alloting start time
group_id: 6, current_row: 16, rows_per_thread: 8, size: 64, credits: 75, inx: 50, NUM_THREADS: 128
Before alloting start time
After alloting start time
group_id: UTHREAD_DONE, elapsed time: 52, start_time: 419260, finish_time:419312 credits:75
UTHREAD_DONE, thread_id: 22, initial_credits: 75, execution_start_time_sec: 1410798538, execution_start_time_usec: 419260, execution_finish_time_sec: 1410798538, execution_finish_time_usec: 419312, interval_given: 375, current execution time: 52, current_credits: 75
6, current_row: 24, rows_per_thread: 8, size: 64, credits: 75, inx: 51, NUM_THREADS: 128
Before alloting start time
After alloting start time
group_id: 6, current_row: 32, rows_per_thread: 8, size: 64, credits: 75, inx: 52, NUM_THREADS: 128
Before alloting start time
After alloting start time
group_id: 6, current_row: 40, rows_per_thread: 8, size: 64, credits: 75, inx: 53, NUM_THREADS: 128
Before alloting start time
After alloting start time
group_id: 6, current_row: 48, rows_per_thread: 8, size: 64, credits: 75, inx: 54, NUM_THREADS: 128
Scheduling Thread: thread_id: 26, current_credits: 100, initial_credits: 100, start_time_sec: 1410798538, start_time_usec: 419332, interval_given: 500
 Before alloting start time
After alloting start time
group_id: 6, current_row: 56, rows_per_thread: 8, size: 64, credits: 75, inx: 55, NUM_THREADS: 128
Before alloting start time
After alloting start time
group_id: 7, current_row: 0, rows_per_thread: 8, size: 64, credits: 100, inx: 56, NUM_THREADS: 128
Before alloting start time
After alloting start time
group_id: 7, current_row: 8, rows_per_thread: 8, size: 64, credits: 100, inx: 57, NUM_THREADS: 128
Before alloting start time
After alloting start time
group_id: 7, current_row: 16, rows_per_thread: 8, size: 64, credits: 100, inx: 58, NUM_THREADS: 128
Before alloting start time
After alloting start time
group_id: 7, current_row: 24, rows_per_thread: 8, size: 64, credits: 100, inx: 59, NUM_THREADS: 128
Before alloting start time
After alloting start time
group_id: 7, current_row: 32, rows_per_thread: 8, size: 64, credits: 100, inx: 60, NUM_THREADS: 128
Before alloting start time
After alloting start time
group_id: 7, current_row: 40, rows_per_thread: 8, size: 64, credits: 100, inx: 61, NUM_THREADS: 128
Before alloting start time
After alloting start time
group_id: 7, current_row: 48, rows_per_thread: 8, size: 64, credits: 100, inx: 62, NUM_THREADS: 128
Before alloting start time
After alloting start time
group_id: 7, current_row: 56, rows_per_thread: 8, size: 64, credits: 100, inx: 63, NUM_THREADS: 128
Before alloting start time
After alloting start time
UTHREAD_DONE, elapsed time: 47, start_time: 419332, finish_time:419379 credits:100
UTHREAD_DONE, thread_id: 26, initial_credits: 100, execution_start_time_sec: 1410798538, execution_start_time_usec: 419332, execution_finish_time_sec: 1410798538, execution_finish_time_usec: 419379Before alloting st500, cur
After alloting start t, c
rrent_credits: 100
group_id: 8, current_row: 16, rows_per_thread: 16, size: 128, credits: 25, inx: 65, NUM_THREADS: 128
Before alloting start time
After alloting start time
group_id: 8, current_row: 32, rows_per_thread: 16, size: 128, credits: 25, inx: 66, NUM_THREADS: 128
Before alloting start time
After alloting start time
group_id: 8, current_row: 48, rows_per_thread: 16, size: 128, credits: 25, inx: 67, NUM_THREADS: 128
Before alloting start time
After alloting start time
group_id: 8, current_row: 64, rows_per_thread: 16, size: 128, credits: 25, inx: 68, NUM_THREADS: 128
Before alloting start time
After alloting start time
group_id: 8, current_row: 80, rows_per_thread: 16, size: 128, credits: 25, inx: 69, NUM_THREADS: 128
Scheduling Thread: thread_id: 30, current_credits: 100, initial_credits: 100, start_time_sec: 1410798538, start_time_usec: 419402, interval_given: 500
 Before alloting start time
After alloting start time
group_id: 8, current_row: 96, rows_per_thread: 16, size: 128, credits: 25, inx: 70, NUM_THREADS: 128
Before alloting start time
After alloting start time
group_id: 8, current_row: 112, rows_per_thread: 16, size: 128, credits: 25, inx: 71, NUM_THREADS: 128
Before alloting start time
After alloting start time
group_id: 9, current_row: 0, rows_per_thread: 16, size: 128, credits: 50, inx: 72, NUM_THREADS: 128
Before alloting start time
After alloting start time
group_id: 9, current_row: 16, rows_per_thread: 16, size: 128, credits: 50, inx: 73, NUM_THREADS: 128
Before alloting start time
After alloting start time
group_id: 9, current_row: 32, rows_per_thread: 16, size: 128, credits: 50, inx: 74, NUM_THREADS: 128
Before alloting start time
After alloting start time
group_id: 9, current_row: 48, rows_per_thread: 16, size: 128, credits: 50, inx: 75, NUM_THREADS: 128
Before alloting start time
After alloting start time
group_id: 9, current_row: 64, rows_per_thread: 16, size: 128, credits: 50, inx: 76, NUM_THREADS: 128
Before alloting start time
After alloting start time
group_id: 9, current_row: 80, rows_per_thread: 16, size: 128, credits: 50, inx: 77, NUM_THREADS: 128
Before alloting start time
After alloting start time
group_id: 9, current_row: 96, rows_per_thread: 16, size: 128, credits: 50, inx: 78, NUM_THREADS: 128
UTHREAD_DONE, elapsed time: 34, start_time: 419402, finish_time:419436 credits:100
UTHREAD_DONE, thread_id: 30, initial_credits: 100, execution_start_time_sec: 1410798538, execution_start_time_usec: 419402, execution_finish_time_sec: 1410798538, execution_finish_time_usec: 419436, interval_given: 500, current execution time: 34, current_credits: 100
Before alloting start time
After alloting start time
group_id: 9, current_row: 112, rows_per_thread: 16, size: 128, credits: 50, inx: 79, NUM_THREADS: 128
Before alloting start time
After alloting start time
group_id: 10, current_row: 0, rows_per_thread: 16, size: 128, credits: 75, inx: 80, NUM_THREADS: 128
Before alloting start time
After alloting start time
group_id: 10, current_row: 16, rows_per_thread: 16, size: 128, credits: 75, inx: 81, NUM_THREADS: 128
Scheduling Thread: thread_id: 34, current_credits: 25, initial_credits: 25, start_time_sec: 1410798538, start_time_usec: 419450, interval_given: 125
 Before alloting start time
After alloting start time
group_id: 10, current_row: 32, rows_per_thread: 16, size: 128, credits: 75, inx: 82, NUM_THREADS: 128
Before alloting start time
After alloting start time
group_id: 10, current_row: 48, rows_per_thread: 16, size: 128, credits: 75, inx: 83, NUM_THREADS: 128
Before alloting start time
After alloting start time
group_id: 10, current_row: 64, rows_per_thread: 16, size: 128, credits: 75, inx: 84, NUM_THREADS: 128
Before alloting start time
After alloting start time
group_id: 10, current_row: 80, rows_per_thread: 16, size: 128, credits: 75, inx: 85, NUM_THREADS: 128
Before alloting start time
After alloting start time
group_id: 10, current_row: 96, rows_per_thread: 16, size: 128, credits: 75, inx: 86, NUM_THREADS: 128
Before alloting start time
After alloting start time
group_id: 10, current_row: 112, rows_per_thread: 16, size: 128, credits: 75, inx: 87, NUM_THREADS: 128
Before alloting start time
After alloting start time
group_id: 11, current_row: 0, rows_per_thread: 16, size: 128, credits: 100, inx: 88, NUM_THREADS: 128
Before alloting start time
After alloting start time
group_id: 11, current_row: 16, rows_per_thread: 16, size: 128, credits: 100, inx: 89, NUM_THREADS: 128
Before alloting start time
After alloting start time
group_id: 11, current_row: 32, rows_per_thread: 16, size: 128, credits: 100, inx: 90, NUM_THREADS: 128
Before alloting start time
After alloting start time
group_id: 11, current_row: 48, rows_per_thread: 16, size: 128, credits: 100, inx: 91, NUM_THREADS: 128
Before alloting start time
After alloting start time
group_id: 11, current_row: 64, rows_per_thread: 16, size: 128, credits: 100, inx: 92, NUM_THREADS: 128
Before alloting start time
After alloting start time
group_id: 11, current_row: 80, rows_per_thread: 16, size: 128, credits: 100, inx: 93, NUM_THREADS: 128
Before alloting start time
After alloting start time
group_id: 11, current_row: 96, rows_per_thread: 16, size: 128, credits: 100, inx: 94, NUM_THREADS: 128
Before alloting start time
After alloting start time
group_id: 11, current_row: 112, rows_per_thread: 16, size: 128, credits: 100, inx: 95, NUM_THREADS: 128
Before alloting start time
After alloting start time
group_id: 12, current_row: 0, rows_per_thread: 32, size: 256, credits: 25, inx: 96, NUM_THREADS: 128
Before alloting start time
After alloting start time
group_id: 12, current_row: 32, rows_per_thread: 32, size: 256, credits: 25, inx: 97, NUM_THREADS: 128
Before alloting start time
After alloting start time
group_id: 12, current_row: 64, rows_per_thread: 32, size: 256, credits: 25, inx: 98, NUM_THREADS: 128
Before alloting start time
After alloting start time
group_id: 12, current_row: 96, rows_per_thread: 32, size: 256, credits: 25, inx: 99, NUM_THREADS: 128
Before alloting start time
After alloting start time
group_id: 12, current_row: 128, rows_per_thread: 32, size: 256, credits: 25, inx: 100, NUM_THREADS: 128
Before alloting start time
After alloting start time
group_id: 12, current_row: 160, rows_per_thread: 32, size: 256, credits: 25, inx: 101, NUM_THREADS: 128
Before alloting start time
After alloting start time
group_id: 12, current_row: 192, rows_per_thread: 32, size: 256, credits: 25, inx: 102, NUM_THREADS: 128
Before alloting start time
After alloting start time
group_id: 12, current_row: 224, rows_per_thread: 32, size: 256, credits: 25, inx: 103, NUM_THREADS: 128
Before alloting start time
After alloting start time
group_id: 13, current_row: 0, rows_per_thread: 32, size: 256, credits: 50, inx: 104, NUM_THREADS: 128
Before alloting start time
After alloting start time
group_id: 13, current_row: 32, rows_per_thread: 32, size: 256, credits: 50, inx: 105, NUM_THREADS: 128
Before alloting start time
After alloting start time
group_id: 13, current_row: 64, rows_per_thread: 32, size: 256, credits: 50, inx: 106, NUM_THREADS: 128
Before alloting start time
After alloting start time
group_id: 13, current_row: 96, rows_per_thread: 32, size: 256, credits: 50, inx: 107, NUM_THREADS: 128
Before alloting start time
After alloting start time
group_id: 13, current_row: 128, rows_per_thread: 32, size: 256, credits: 50, inx: 108, NUM_THREADS: 128
Before alloting start time
After alloting start time
group_id: 13, current_row: 160, rows_per_thread: 32, size: 256, credits: 50, inx: 109, NUM_THREADS: 128
Before alloting start time
After alloting start time
group_id: 13, current_row: 192, rows_per_thread: 32, size: 256, credits: 50, inx: 110, NUM_THREADS: 128
Before alloting start time
After alloting start time
group_id: 13, current_row: 224, rows_per_thread: 32, size: 256, credits: 50, inx: 111, NUM_THREADS: 128
Before alloting start time
After alloting start time
group_id: 14, current_row: 0, rows_per_thread: 32, size: 256, credits: 75, inx: 112, NUM_THREADS: 128
Before alloting start time
After alloting start time
group_id: 14, current_row: 32, rows_per_thread: 32, size: 256, credits: 75, inx: 113, NUM_THREADS: 128
Before alloting start time
After alloting start time
group_id: 14, current_row: 64, rows_per_thread: 32, size: 256, credits: 75, inx: 114, NUM_THREADS: 128
Before alloting start time
After alloting start time
group_id: 14, current_row: 96, rows_per_thread: 32, size: 256, credits: 75, inx: 115, NUM_THREADS: 128
Before alloting start time
After alloting start time
group_id: 14, current_row: 128, rows_per_thread: 32, size: 256, credits: 75, inx: 116, NUM_THREADS: 128
Before alloting start time
After alloting start time
group_id: 14, current_row: 160, rows_per_thread: 32, size: 256, credits: 75, inx: 117, NUM_THREADS: 128
Before alloting start time
After alloting start time
group_id: 14, current_row: 192, rows_per_thread: 32, size: 256, credits: 75, inx: 118, NUM_THREADS: 128
Before alloting start time
After alloting start time
group_id: 14, current_row: 224, rows_per_thread: 32, size: 256, credits: 75, inx: 119, NUM_THREADS: 128
Before alloting start time
After alloting start time
group_id: 15, current_row: 0, rows_per_thread: 32, size: 256, credits: 100, inx: 120, NUM_THREADS: 128
Before alloting start time
After alloting start time
group_id: 15, current_row: 32, rows_per_thread: 32, size: 256, credits: 100, inx: 121, NUM_THREADS: 128
Before alloting start time
After alloting start time
group_id: 15, current_row: 64, rows_per_thread: 32, size: 256, credits: 100, inx: 122, NUM_THREADS: 128
Before alloting start time
After alloting start time
group_id: 15, current_row: 96, rows_per_thread: 32, size: 256, credits: 100, inx: 123, NUM_THREADS: 128
Before alloting start time
After alloting start time
group_id: 15, current_row: 128, rows_per_thread: 32, size: 256, credits: 100, inx: 124, NUM_THREADS: 128
Before alloting start time
After alloting start time
group_id: 15, current_row: 160, rows_per_thread: 32, size: 256, credits: 100, inx: 125, NUM_THREADS: 128
Before alloting start time
After alloting start time
group_id: 15, current_row: 192, rows_per_thread: 32, size: 256, credits: 100, inx: 126, NUM_THREADS: 128
Before alloting start time
After alloting start time
group_id: 15, current_row: 224, rows_per_thread: 32, size: 256, credits: 100, inx: 127, NUM_THREADS: 128
Before alloting start time
After alloting start time
UTHREAD_DONE, elapsed time: 264, start_time: 419450, finish_time:419714 credits:25
************Error: elapsed_time_current > interval_given
start_time_sec: 1410798538, start_time_usec: 419450, finish_time: 1410798538, finish_time_usec: 419714
UTHREAD_DONE, thread_id: 34, initial_credits: 25, execution_start_time_sec: 1410798538, execution_start_time_usec: 419450, execution_finish_time_sec: 1410798538, execution_finish_time_usec: 419714, interval_given: 125, current execution time: 264, current_credits: 25
Scheduling Thread: thread_id: 38, current_credits: 25, initial_credits: 25, start_time_sec: 1410798538, start_time_usec: 419731, interval_given: 125
 Scheduling Thread: thread_id: 1, current_credits: 25, initial_credits: 25, start_time_sec: 1410798538, start_time_usec: 443729, interval_given: 125
 UTHREAD_DONE, elapsed time: 42, start_time: 443729, finish_time:443771 credits:25
UTHREAD_DONE, thread_id: 1, initial_credits: 25, execution_start_time_sec: 1410798538, execution_start_time_usec: 443729, execution_finish_time_sec: 1410798538, execution_finish_time_usec: 443771, interval_given: 125, current execution time: 42, current_credits: 25
Scheduling Thread: thread_id: 5, current_credits: 25, initial_credits: 25, start_time_sec: 1410798538, start_time_usec: 443784, interval_given: 125
 UTHREAD_DONE, elapsed time: 34, start_time: 443784, finish_time:443818 credits:25
UTHREAD_DONE, thread_id: 5, initial_credits: 25, execution_start_time_sec: 1410798538, execution_start_time_usec: 443784, execution_finish_time_sec: 1410798538, execution_finish_time_usec: 443818, interval_given: 125, current execution time: 34, current_credits: 25
Scheduling Thread: thread_id: 9, current_credits: 50, initial_credits: 50, start_time_sec: 1410798538, start_time_usec: 443845, interval_given: 250
 UTHREAD_DONE, elapsed time: 35, start_time: 443845, finish_time:443880 credits:50
UTHREAD_DONE, thread_id: 9, initial_credits: 50, execution_start_time_sec: 1410798538, execution_start_time_usec: 443845, execution_finish_time_sec: 1410798538, execution_finish_time_usec: 443880, interval_given: 250, current execution time: 35, current_credits: 50
Scheduling Thread: thread_id: 13, current_credits: 50, initial_credits: 50, start_time_sec: 1410798538, start_time_usec: 443891, interval_given: 250
 Scheduling Thread: thread_id: 3, current_credits: 25, initial_credits: 25, start_time_sec: 1410798538, start_time_usec: 443896, interval_given: 125
 UTHREAD_DONE, elapsed time: 33, start_time: 443891, finish_time:443924 credits:50
UTHREAD_DONE, thread_id: 13, initial_credits: 50, execution_start_time_sec: 1410798538, execution_start_time_usec: 443891, execution_finish_time_sec: 1410798538, execution_finish_time_usec: 443924, interval_given: 250, current execution time: 33, current_credits: 50
Scheduling Thread: thread_id: 17, current_credits: 75, initial_credits: 75, start_time_sec: 1410798538, start_time_usec: 443937, interval_given: 375
 UTHREAD_DONE, elapsed time: 41, start_time: 443896, finish_time:443937 credits:25
UTHREAD_DONE, thread_id: 3, initial_credits: 25, execution_start_time_sec: 1410798538, execution_start_time_usec: 443896, execution_finish_time_sec: 1410798538, execution_finish_time_usec: 443937, interval_given: 125, current execution time: 41, current_credits: 25
Scheduling Thread: thread_id: 7, current_credits: 25UTHREAD_DONE, elapsed time: 251410798538, start_ti, finish_time:443947, interval_given: 75
UTHREAD_DONE, thread_id: 17, initial_credits: 75, execution_start_time_sec: 1410798538, execution_start_time_usec: 443937, execution_finish_time_sec: 1410798538, execution_finish_time_usec: 443972, interval_given: 375, current execution time: 35, current_credits: 75
Scheduling Thread: thread_id: 21, current_credits: 75, initial_credits: 75, start_time_sec: 1410798538, start_time_usec: 443995, interval_given: 375
 UTHREAD_DONE, elapsed time: 48, start_time: 443947, finish_time:443995 credits:25
UTHREAD_DONE, thread_id: 7, initial_credits: 25, execution_start_time_sec: 1410798538, execution_start_time_usec: 443947, execution_finish_time_sec: 1410798538, execution_finish_time_usec: 443995, interval_given: 125, current execution time: 48, current_credits: 25
Scheduling Thread: thread_id: 11, current_credits: 50, initial_credits: 50, start_time_sec: 1410798538, start_time_usec: 443995, interval_given: 250
 UTHREAD_DONE, elapsed time: 36, start_time: 443995, finish_time:444031 credits:75
UTHREAD_DONE, thread_id: 21, initial_credits: 75, execution_start_time_sec: 1410798538, execution_start_time_usec: 443995, execution_finish_time_sec: 1410798538, execution_finish_time_usec: 444031, interval_given: 375, current execution time: 36, current_credits: 75
Scheduling Thread: thread_id: 25, current_credits: 100, initial_credits: 100, start_time_sec: 1410798538, start_time_usec: 444041, interval_given: 500
 UTHREAD_DONE, elapsed time: 46, start_time: 443995, finish_time:444041 credits:50
UTHREAD_DONE, thread_id: 11, initial_credits: 50, execution_start_time_sec: 1410798538, execution_start_time_usec: 443995, execution_finish_time_sec: 1410798538, execution_finish_time_usec: 444041, interval_given: 250, current execution time: 46, current_credits: 50
Scheduling Thread: thread_id: 15, current_credits: 50, initial_credits: 50, start_time_sec: 1410798538, start_time_usec: 444041, interval_given: 250
 UTHREAD_DONE, elapsed time: 35, start_time: 444041, finish_time:444076 credits:100
UTHREAD_DONE, thread_id: 25, initial_credits: 100, execution_start_time_sec: 1410798538, execution_start_time_usec: 444041, execution_finish_time_sec: 1410798538, execution_finish_time_usec: 444076, interval_given: 500, current execution time: 35, current_credits: 100
Scheduling Thread: thread_id: 29, current_credits: 100, initial_credits: 100, start_time_sec: 1410798538, start_time_usec: 444098, interval_given: 500
 UTHREAD_DONE, elapsed time: 57, start_time: 444041, finish_time:444098 credits:50
UTHREAD_DONE, thread_id: 15, initial_credits: 50, execution_start_time_sec: 1410798538, execution_start_time_usec: 444041, execution_finish_time_sec: 1410798538, execution_finish_time_usec: 444098, interval_given: 250, current execution time: 57, current_credits: 50
UTHREAD_DONE, elapsed time: 33, start_time: 444098, finish_time:444131 credits:100
UTHREAD_DONE, thread_id: 29, initial_credits: 100, execution_start_time_sec: 1410798538, execution_start_time_usec: 444098, execution_finish_time_sec: 1410798538, execution_finish_time_usec: 444131, interval_given: 500, current execution time: 33, current_credits: 100
Scheduling Thread: thread_id: 19, current_credits: 75, initial_credits: 75, start_time_sec: 1410798538, start_time_usec: 444131, interval_given: 375
 Scheduling Thread: thread_id: 33, current_credits: 25, initial_credits: 25, start_time_sec: 1410798538, start_time_usec: 444145, interval_given: 125
 UTHREAD_DONE, elapsed time: 18, start_time: 444131, finish_time:444149 credits:75
UTHREAD_DONE, thread_id: 19, initial_credits: 75, execution_start_time_sec: 1410798538, execution_start_time_usec: 444131, execution_finish_time_sec: 1410798538, execution_finish_time_usec: 444149, interval_given: 375, current execution time: 18, current_credits: 75
Scheduling Thread: thread_id: 23, current_credits: 75, initial_credits: 75, start_time_sec: 1410798538, start_time_usec: 444160, interval_given: 375
 UTHREAD_DONE, elapsed time: 36, start_time: 444160, finish_time:444196 credits:75
UTHREAD_DONE, thread_id: 23, initial_credits: 75, execution_start_time_sec: 1410798538, execution_start_time_usec: 444160, execution_finish_time_sec: 1410798538, execution_finish_time_usec: 444196, interval_given: 375, current execution time: 36, current_credits: 75
Scheduling Thread: thread_id: 27, current_credits: 100, initial_credits: 100, start_time_sec: 1410798538, start_time_usec: 444208, interval_given: 500
 UTHREAD_DONE, elapsed time: 34, start_time: 444208, finish_time:444242 credits:100
UTHREAD_DONE, thread_id: 27, initial_credits: 100, execution_start_time_sec: 1410798538, execution_start_time_usec: 444208, execution_finish_time_sec: 1410798538, execution_finish_time_usec: 444242, interval_given: 500, current execution time: 34, current_credits: 100
Scheduling Thread: thread_id: 31, current_credits: 100, initial_credits: 100, start_time_sec: 1410798538, start_time_usec: 444254, interval_given: 500
 UTHREAD_DONE, elapsed time: 41, start_time: 444254, finish_time:444295 credits:100
UTHREAD_DONE, thread_id: 31, initial_credits: 100, execution_start_time_sec: 1410798538, execution_start_time_usec: 444254, execution_finish_time_sec: 1410798538, execution_finish_time_usec: 444295, interval_given: 500, current execution time: 41, current_credits: 100
Scheduling Thread: thread_id: 35, current_credits: 25, initial_credits: 25, start_time_sec: 1410798538, start_time_usec: 444314, interval_given: 125
 UTHREAD_DONE, elapsed time: 274, start_time: 444145, finish_time:444419 credits:25
************Error: elapsed_time_current > interval_given
start_time_sec: 1410798538, start_time_usec: 444145, finish_time: 1410798538, finish_time_usec: 444419
UTHREAD_DONE, thread_id: 33, initial_credits: 25, execution_start_time_sec: 1410798538, execution_start_time_usec: 444145, execution_finish_time_sec: 1410798538, execution_finish_time_usec: 444419, interval_given: 125, current execution time: 274, current_credits: 25
Scheduling Thread: thread_id: 37, current_credits: 25, initial_credits: 25, start_time_sec: 1410798538, start_time_usec: 444434, interval_given: 125
 UTHREAD_DONE, elapsed time: 298, start_time: 444434, finish_time:444732 credits:25
************Error: elapsed_time_current > interval_given
start_time_sec: 1410798538, start_time_usec: 444434, finish_time: 1410798538, finish_time_usec: 444732
UTHREAD_DONE, thread_id: 37, initial_credits: 25, execution_start_time_sec: 1410798538, execution_start_time_usec: 444434, execution_finish_time_sec: 1410798538, execution_finish_time_usec: 444732, interval_given: 125, current execution time: 298, current_credits: 25
Scheduling Thread: thread_id: 41, current_credits: 50, initial_credits: 50, start_time_sec: 1410798538, start_time_usec: 444758, interval_given: 250
 UTHREAD_DONE, elapsed time: 464, start_time: 444314, finish_time:444778 credits:25
************Error: elapsed_time_current > interval_given
start_time_sec: 1410798538, start_time_usec: 444314, finish_time: 1410798538, finish_time_usec: 444778
UTHREAD_DONE, thread_id: 35, initial_credits: 25, execution_start_time_sec: 1410798538, execution_start_time_usec: 444314, execution_finish_time_sec: 1410798538, execution_finish_time_usec: 444778, interval_given: 125, current execution time: 464, current_credits: 25
Scheduling Thread: thread_id: 39, current_credits: 25, initial_credits: 25, start_time_sec: 1410798538, start_time_usec: 444800, interval_given: 125
 UTHREAD_DONE, elapsed time: 260, start_time: 444758, finish_time:445018 credits:50
************Error: elapsed_time_current > interval_given
start_time_sec: 1410798538, start_time_usec: 444758, finish_time: 1410798538, finish_time_usec: 445018
UTHREAD_DONE, thread_id: 41, initial_credits: 50, execution_start_time_sec: 1410798538, execution_start_time_usec: 444758, execution_finish_time_sec: 1410798538, execution_finish_time_usec: 445018, interval_given: 250, current execution time: 260, current_credits: 50
Scheduling Thread: thread_id: 45, current_credits: 50, initial_credits: 50, start_time_sec: 1410798538, start_time_usec: 445029, interval_given: 250
 UTHREAD_DONE, elapsed time: 257, start_time: 444800, finish_time:445057 credits:25
************Error: elapsed_time_current > interval_given
start_time_sec: 1410798538, start_time_usec: 444800, finish_time: 1410798538, finish_time_usec: 445057
UTHREAD_DONE, thread_id: 39, initial_credits: 25, execution_start_time_sec: 1410798538, execution_start_time_usec: 444800, execution_finish_time_sec: 1410798538, execution_finish_time_usec: 445057, interval_given: 125, current execution time: 257, current_credits: 25
Scheduling Thread: thread_id: 43, current_credits: 50, initial_credits: 50, start_time_sec: 1410798538, start_time_usec: 445068, interval_given: 250
 UTHREAD_DONE, elapsed time: 265, start_time: 445029, finish_time:445294 credits:50
************Error: elapsed_time_current > interval_given
start_time_sec: 1410798538, start_time_usec: 445029, finish_time: 1410798538, finish_time_usec: 445294
UTHREAD_DONE, thread_id: 45, initial_credits: 50, execution_start_time_sec: 1410798538, execution_start_time_usec: 445029, execution_finish_time_sec: 1410798538, execution_finish_time_usec: 445294, interval_given: 250, current execution time: 265, current_credits: 50
Scheduling Thread: thread_id: 49, current_credits: 75, initial_credits: 75, start_time_sec: 1410798538, start_time_usec: 445310, interval_given: 375
 UTHREAD_DONE, elapsed time: 266, start_time: 445068, finish_time:445334 credits:50
************Error: elapsed_time_current > interval_given
start_time_sec: 1410798538, start_time_usec: 445068, finish_time: 1410798538, finish_time_usec: 445334
UTHREAD_DONE, thread_id: 43, initial_credits: 50, execution_start_time_sec: 1410798538, execution_start_time_usec: 445068, execution_finish_time_sec: 1410798538, execution_finish_time_usec: 445334, interval_given: 250, current execution time: 266, current_credits: 50
Scheduling Thread: thread_id: 47, current_credits: 50, initial_credits: 50, start_time_sec: 1410798538, start_time_usec: 445349, interval_given: 250
 UTHREAD_DONE, elapsed time: 265, start_time: 445310, finish_time:445575 credits:75
UTHREAD_DONE, thread_id: 49, initial_credits: 75, execution_start_time_sec: 1410798538, execution_start_time_usec: 445310, execution_finish_time_sec: 1410798538, execution_finish_time_usec: 445575, interval_given: 375, current execution time: 265, current_credits: 75
Scheduling Thread: thread_id: 53, current_credits: 75, initial_credits: 75, start_time_sec: 1410798538, start_time_usec: 445602, interval_given: 375
 UTHREAD_DONE, elapsed time: 415, start_time: 445349, finish_time:445764 credits:50
************Error: elapsed_time_current > interval_given
start_time_sec: 1410798538, start_time_usec: 445349, finish_time: 1410798538, finish_time_usec: 445764
UTHREAD_DONE, thread_id: 47, initial_credits: 50, execution_start_time_sec: 1410798538, execution_start_time_usec: 445349, execution_finish_time_sec: 1410798538, execution_finish_time_usec: 445764, interval_given: 250, current execution time: 415, current_credits: 50
Scheduling Thread: thread_id: 51, current_credits: 75, initial_credits: 75, start_time_sec: 1410798538, start_time_usec: 445785, interval_given: 375
 UTHREAD_DONE, elapsed time: 283, start_time: 445602, finish_time:445885 credits:75
UTHREAD_DONE, thread_id: 53, initial_credits: 75, execution_start_time_sec: 1410798538, execution_start_time_usec: 445602, execution_finish_time_sec: 1410798538, execution_finish_time_usec: 445885, interval_given: 375, current execution time: 283, current_credits: 75
Scheduling Thread: thread_id: 57, current_credits: 100, initial_credits: 100, start_time_sec: 1410798538, start_time_usec: 445903, interval_given: 500
 UTHREAD_DONE, elapsed time: 258, start_time: 445785, finish_time:446043 credits:75
UTHREAD_DONE, thread_id: 51, initial_credits: 75, execution_start_time_sec: 1410798538, execution_start_time_usec: 445785, execution_finish_time_sec: 1410798538, execution_finish_time_usec: 446043, interval_given: 375, current execution time: 258, current_credits: 75
Scheduling Thread: thread_id: 55, current_credits: 75, initial_credits: 75, start_time_sec: 1410798538, start_time_usec: 446053, interval_given: 375
 UTHREAD_DONE, elapsed time: 269, start_time: 445903, finish_time:446172 credits:100
UTHREAD_DONE, thread_id: 57, initial_credits: 100, execution_start_time_sec: 1410798538, execution_start_time_usec: 445903, execution_finish_time_sec: 1410798538, execution_finish_time_usec: 446172, interval_given: 500, current execution time: 269, current_credits: 100
Scheduling Thread: thread_id: 61, current_credits: 100, initial_credits: 100, start_time_sec: 1410798538, start_time_usec: 446185, interval_given: 500
 UTHREAD_DONE, elapsed time: 266, start_time: 446053, finish_time:446319 credits:75
UTHREAD_DONE, thread_id: 55, initial_credits: 75, execution_start_time_sec: 1410798538, execution_start_time_usec: 446053, execution_finish_time_sec: 1410798538, execution_finish_time_usec: 446319, interval_given: 375, current execution time: 266, current_credits: 75
Scheduling Thread: thread_id: 59, current_credits: 100, initial_credits: 100, start_time_sec: 1410798538, start_time_usec: 446337, interval_given: 500
 UTHREAD_DONE, elapsed time: 256, start_time: 446185, finish_time:446441 credits:100
UTHREAD_DONE, thread_id: 61, initial_credits: 100, execution_start_time_sec: 1410798538, execution_start_time_usec: 446185, execution_finish_time_sec: 1410798538, execution_finish_time_usec: 446441, interval_given: 500, current execution time: 256, current_credits: 100
Scheduling Thread: thread_id: 65, current_credits: 25, initial_credits: 25, start_time_sec: 1410798538, start_time_usec: 446451, interval_given: 125
 UTHREAD_DONE, elapsed time: 340, start_time: 446337, finish_time:446677 credits:100
UTHREAD_DONE, thread_id: 59, initial_credits: 100, execution_start_time_sec: 1410798538, execution_start_time_usec: 446337, execution_finish_time_sec: 1410798538, execution_finish_time_usec: 446677, interval_given: 500, current execution time: 340, current_credits: 100
Scheduling Thread: thread_id: 63, current_credits: 100, initial_credits: 100, start_time_sec: 1410798538, start_time_usec: 446708, interval_given: 500
 UTHREAD_DONE, elapsed time: 241, start_time: 446708, finish_time:446949 credits:100
UTHREAD_DONE, thread_id: 63, initial_credits: 100, execution_start_time_sec: 1410798538, execution_start_time_usec: 446708, execution_finish_time_sec: 1410798538, execution_finish_time_usec: 446949, interval_given: 500, current execution time: 241, current_credits: 100
Scheduling Thread: thread_id: 67, current_credits: 25, initial_credits: 25, start_time_sec: 1410798538, start_time_usec: 447010, interval_given: 125
 Inside ksched_credit
Scheduling Thread: thread_id: 71, current_credits: 25, initial_credits: 25, start_time_sec: 1410798538, start_time_usec: 448577, interval_given: 125
 Inside ksched_credit
Scheduling Thread: thread_id: 67, current_credits: 25, initial_credits: 25, start_time_sec: 1410798538, start_time_usec: 450469, interval_given: 125
 UTHREAD_DONE, elapsed time: 819, start_time: 450469, finish_time:451288 credits:25
************Error: elapsed_time_current > interval_given
start_time_sec: 1410798538, start_time_usec: 450469, finish_time: 1410798538, finish_time_usec: 451288
UTHREAD_DONE, thread_id: 67, initial_credits: 25, execution_start_time_sec: 1410798538, execution_start_time_usec: 450469, execution_finish_time_sec: 1410798538, execution_finish_time_usec: 451288, interval_given: 125, current execution time: 819, current_credits: 25
Scheduling Thread: thread_id: 71, current_credits: 25, initial_credits: 25, start_time_sec: 1410798538, start_time_usec: 451295, interval_given: 125
 UTHREAD_DONE, elapsed time: 356, start_time: 451295, finish_time:451651 credits:25
************Error: elapsed_time_current > interval_given
start_time_sec: 1410798538, start_time_usec: 451295, finish_time: 1410798538, finish_time_usec: 451651
UTHREAD_DONE, thread_id: 71, initial_credits: 25, execution_start_time_sec: 1410798538, execution_start_time_usec: 451295, execution_finish_time_sec: 1410798538, execution_finish_time_usec: 451651, interval_given: 125, current execution time: 356, current_credits: 25
Scheduling Thread: thread_id: 75, current_credits: 50, initial_credits: 50, start_time_sec: 1410798538, start_time_usec: 451665, interval_given: 250
 Scheduling Thread: thread_id: 0, current_credits: 25, initial_credits: 25, start_time_sec: 1410798538, start_time_usec: 463709, interval_given: 125
 UTHREAD_DONE, elapsed time: 0, start_time: 463709, finish_time:463709 credits:25
UTHREAD_DONE, thread_id: 0, initial_credits: 25, execution_start_time_sec: 1410798538, execution_start_time_usec: 463709, execution_finish_time_sec: 1410798538, execution_finish_time_usec: 463709, interval_given: 125, current execution time: 0, current_credits: 25
Scheduling Thread: thread_id: 4, current_credits: 25, initial_credits: 25, start_time_sec: 1410798538, start_time_usec: 463835, interval_given: 125
 UTHREAD_DONE, elapsed time: 34, start_time: 463835, finish_time:463869 credits:25
UTHREAD_DONE, thread_id: 4, initial_credits: 25, execution_start_time_sec: 1410798538, execution_start_time_usec: 463835, execution_finish_time_sec: 1410798538, execution_finish_time_usec: 463869, interval_given: 125, current execution time: 34, current_credits: 25
Scheduling Thread: thread_id: 8, current_credits: 50, initial_credits: 50, start_time_sec: 1410798538, start_time_usec: 463886, interval_given: 250
 UTHREAD_DONE, elapsed time: 35, start_time: 463886, finish_time:463921 credits:50
UTHREAD_DONE, thread_id: 8, initial_credits: 50, execution_start_time_sec: 1410798538, execution_start_time_usec: 463886, execution_finish_time_sec: 1410798538, execution_finish_time_usec: 463921, interval_given: 250, current execution time: 35, current_credits: 50
Scheduling Thread: thread_id: 12, current_credits: 50, initial_credits: 50, start_time_sec: 1410798538, start_time_usec: 463932, interval_given: 250
 Going to execute gt_yield()
^^^^^^^^^^^^^^^Inside gt_yield^^^^^^^^^^^^^^
IN GT_YIELD, thread_id: 12, initial_credits: 50, elapsed time: 34, start_time_sec: 1410798538, start_time_usec: 463932, finish_time_sec: 1410798538, finish_time_usec: 463966, credits left: 50, interval_given: 250, ratio: 0.136000, actual_credits_consumed: 6, credits left after gt_yield: 44
Scheduling Thread: thread_id: 12, current_credits: 44, initial_credits: 50, start_time_sec: 1410798538, start_time_usec: 463990, interval_given: 220
 UTHREAD_DONE, elapsed time: 47, start_time: 463990, finish_time:464003 credits:44
UTHREAD_DONE, thread_id: 12, initial_credits: 50, execution_start_time_sec: 1410798538, execution_start_time_usec: 463990, execution_finish_time_sec: 1410798538, execution_finish_time_usec: 464003, interval_given: 220, current execution time: 13, current_credits: 44
Scheduling Thread: thread_id: 16, current_credits: 75, initial_credits: 75, start_time_sec: 1410798538, start_time_usec: 464015, interval_given: 375
 UTHREAD_DONE, elapsed time: 33, start_time: 464015, finish_time:464048 credits:75
UTHREAD_DONE, thread_id: 16, initial_credits: 75, execution_start_time_sec: 1410798538, execution_start_time_usec: 464015, execution_finish_time_sec: 1410798538, execution_finish_time_usec: 464048, interval_given: 375, current execution time: 33, current_credits: 75
Scheduling Thread: thread_id: 20, current_credits: 75, initial_credits: 75, start_time_sec: 1410798538, start_time_usec: 464065, interval_given: 375
 UTHREAD_DONE, elapsed time: 36, start_time: 464065, finish_time:464101 credits:75
UTHREAD_DONE, thread_id: 20, initial_credits: 75, execution_start_time_sec: 1410798538, execution_start_time_usec: 464065, execution_finish_time_sec: 1410798538, execution_finish_time_usec: 464101, interval_given: 375, current execution time: 36, current_credits: 75
Scheduling Thread: thread_id: 24, current_credits: 100, initial_credits: 100, start_time_sec: 1410798538, start_time_usec: 464113, interval_given: 500
 UTHREAD_DONE, elapsed time: 35, start_time: 464113, finish_time:464148 credits:100
UTHREAD_DONE, thread_id: 24, initial_credits: 100, execution_start_time_sec: 1410798538, execution_start_time_usec: 464113, execution_finish_time_sec: 1410798538, execution_finish_time_usec: 464148, interval_given: 500, current execution time: 35, current_credits: 100
Scheduling Thread: thread_id: 28, current_credits: 100, initial_credits: 100, start_time_sec: 1410798538, start_time_usec: 464163, interval_given: 500
 UTHREAD_DONE, elapsed time: 34, start_time: 464163, finish_time:464197 credits:100
UTHREAD_DONE, thread_id: 28, initial_credits: 100, execution_start_time_sec: 1410798538, execution_start_time_usec: 464163, execution_finish_time_sec: 1410798538, execution_finish_time_usec: 464197, interval_given: 500, current execution time: 34, current_credits: 100
Scheduling Thread: thread_id: 32, current_credits: 25, initial_credits: 25, start_time_sec: 1410798538, start_time_usec: 464208, interval_given: 125
 UTHREAD_DONE, elapsed time: 263, start_time: 464208, finish_time:464471 credits:25
************Error: elapsed_time_current > interval_given
start_time_sec: 1410798538, start_time_usec: 464208, finish_time: 1410798538, finish_time_usec: 464471
UTHREAD_DONE, thread_id: 32, initial_credits: 25, execution_start_time_sec: 1410798538, execution_start_time_usec: 464208, execution_finish_time_sec: 1410798538, execution_finish_time_usec: 464471, interval_given: 125, current execution time: 263, current_credits: 25
Scheduling Thread: thread_id: 36, current_credits: 25, initial_credits: 25, start_time_sec: 1410798538, start_time_usec: 464487, interval_given: 125
 UTHREAD_DONE, elapsed time: 272, start_time: 464487, finish_time:464759 credits:25
************Error: elapsed_time_current > interval_given
start_time_sec: 1410798538, start_time_usec: 464487, finish_time: 1410798538, finish_time_usec: 464759
UTHREAD_DONE, thread_id: 36, initial_credits: 25, execution_start_time_sec: 1410798538, execution_start_time_usec: 464487, execution_finish_time_sec: 1410798538, execution_finish_time_usec: 464759, interval_given: 125, current execution time: 272, current_credits: 25
Scheduling Thread: thread_id: 40, current_credits: 50, initial_credits: 50, start_time_sec: 1410798538, start_time_usec: 464777, interval_given: 250
 UTHREAD_DONE, elapsed time: 266, start_time: 464777, finish_time:465043 credits:50
************Error: elapsed_time_current > interval_given
start_time_sec: 1410798538, start_time_usec: 464777, finish_time: 1410798538, finish_time_usec: 465043
UTHREAD_DONE, thread_id: 40, initial_credits: 50, execution_start_time_sec: 1410798538, execution_start_time_usec: 464777, execution_finish_time_sec: 1410798538, execution_finish_time_usec: 465043, interval_given: 250, current execution time: 266, current_credits: 50
Scheduling Thread: thread_id: 44, current_credits: 50, initial_credits: 50, start_time_sec: 1410798538, start_time_usec: 465063, interval_given: 250
 UTHREAD_DONE, elapsed time: 275, start_time: 465063, finish_time:465338 credits:50
************Error: elapsed_time_current > interval_given
start_time_sec: 1410798538, start_time_usec: 465063, finish_time: 1410798538, finish_time_usec: 465338
UTHREAD_DONE, thread_id: 44, initial_credits: 50, execution_start_time_sec: 1410798538, execution_start_time_usec: 465063, execution_finish_time_sec: 1410798538, execution_finish_time_usec: 465338, interval_given: 250, current execution time: 275, current_credits: 50
Scheduling Thread: thread_id: 48, current_credits: 75, initial_credits: 75, start_time_sec: 1410798538, start_time_usec: 465368, interval_given: 375
 UTHREAD_DONE, elapsed time: 276, start_time: 465368, finish_time:465644 credits:75
UTHREAD_DONE, thread_id: 48, initial_credits: 75, execution_start_time_sec: 1410798538, execution_start_time_usec: 465368, execution_finish_time_sec: 1410798538, execution_finish_time_usec: 465644, interval_given: 375, current execution time: 276, current_credits: 75
Scheduling Thread: thread_id: 52, current_credits: 75, initial_credits: 75, start_time_sec: 1410798538, start_time_usec: 465658, interval_given: 375
 UTHREAD_DONE, elapsed time: 261, start_time: 465658, finish_time:465919 credits:75
UTHREAD_DONE, thread_id: 52, initial_credits: 75, execution_start_time_sec: 1410798538, execution_start_time_usec: 465658, execution_finish_time_sec: 1410798538, execution_finish_time_usec: 465919, interval_given: 375, current execution time: 261, current_credits: 75
Scheduling Thread: thread_id: 56, current_credits: 100, initial_credits: 100, start_time_sec: 1410798538, start_time_usec: 465936, interval_given: 500
 UTHREAD_DONE, elapsed time: 263, start_time: 465936, finish_time:466199 credits:100
UTHREAD_DONE, thread_id: 56, initial_credits: 100, execution_start_time_sec: 1410798538, execution_start_time_usec: 465936, execution_finish_time_sec: 1410798538, execution_finish_time_usec: 466199, interval_given: 500, current execution time: 263, current_credits: 100
Scheduling Thread: thread_id: 60, current_credits: 100, initial_credits: 100, start_time_sec: 1410798538, start_time_usec: 466214, interval_given: 500
 UTHREAD_DONE, elapsed time: 266, start_time: 466214, finish_time:466480 credits:100
UTHREAD_DONE, thread_id: 60, initial_credits: 100, execution_start_time_sec: 1410798538, execution_start_time_usec: 466214, execution_finish_time_sec: 1410798538, execution_finish_time_usec: 466480, interval_given: 500, current execution time: 266, current_credits: 100
Scheduling Thread: thread_id: 64, current_credits: 25, initial_credits: 25, start_time_sec: 1410798538, start_time_usec: 466493, interval_given: 125
 UTHREAD_DONE, elapsed time: 56269, start_time: 419731, finish_time:476000 credits:25
************Error: elapsed_time_current > interval_given
start_time_sec: 1410798538, start_time_usec: 419731, finish_time: 1410798538, finish_time_usec: 476000
UTHREAD_DONE, thread_id: 38, initial_credits: 25, execution_start_time_sec: 1410798538, execution_start_time_usec: 419731, execution_finish_time_sec: 1410798538, execution_finish_time_usec: 476000, interval_given: 125, current execution time: 56269, current_credits: 25
Scheduling Thread: thread_id: 42, current_credits: 50, initial_credits: 50, start_time_sec: 1410798538, start_time_usec: 476017, interval_given: 250
 UTHREAD_DONE, elapsed time: 260, start_time: 476017, finish_time:476277 credits:50
************Error: elapsed_time_current > interval_given
start_time_sec: 1410798538, start_time_usec: 476017, finish_time: 1410798538, finish_time_usec: 476277
UTHREAD_DONE, thread_id: 42, initial_credits: 50, execution_start_time_sec: 1410798538, execution_start_time_usec: 476017, execution_finish_time_sec: 1410798538, execution_finish_time_usec: 476277, interval_given: 250, current execution time: 260, current_credits: 50
Scheduling Thread: thread_id: 46, current_credits: 50, initial_credits: 50, start_time_sec: 1410798538, start_time_usec: 476304, interval_given: 250
 UTHREAD_DONE, elapsed time: 255, start_time: 476304, finish_time:476559 credits:50
************Error: elapsed_time_current > interval_given
start_time_sec: 1410798538, start_time_usec: 476304, finish_time: 1410798538, finish_time_usec: 476559
UTHREAD_DONE, thread_id: 46, initial_credits: 50, execution_start_time_sec: 1410798538, execution_start_time_usec: 476304, execution_finish_time_sec: 1410798538, execution_finish_time_usec: 476559, interval_given: 250, current execution time: 255, current_credits: 50
Scheduling Thread: thread_id: 50, current_credits: 75, initial_credits: 75, start_time_sec: 1410798538, start_time_usec: 476580, interval_given: 375
 UTHREAD_DONE, elapsed time: 274, start_time: 476580, finish_time:476854 credits:75
UTHREAD_DONE, thread_id: 50, initial_credits: 75, execution_start_time_sec: 1410798538, execution_start_time_usec: 476580, execution_finish_time_sec: 1410798538, execution_finish_time_usec: 476854, interval_given: 375, current execution time: 274, current_credits: 75
Scheduling Thread: thread_id: 54, current_credits: 75, initial_credits: 75, start_time_sec: 1410798538, start_time_usec: 476867, interval_given: 375
 UTHREAD_DONE, elapsed time: 256, start_time: 476867, finish_time:477123 credits:75
UTHREAD_DONE, thread_id: 54, initial_credits: 75, execution_start_time_sec: 1410798538, execution_start_time_usec: 476867, execution_finish_time_sec: 1410798538, execution_finish_time_usec: 477123, interval_given: 375, current execution time: 256, current_credits: 75
Scheduling Thread: thread_id: 58, current_credits: 100, initial_credits: 100, start_time_sec: 1410798538, start_time_usec: 477140, interval_given: 500
 UTHREAD_DONE, elapsed time: 286, start_time: 477140, finish_time:477426 credits:100
UTHREAD_DONE, thread_id: 58, initial_credits: 100, execution_start_time_sec: 1410798538, execution_start_time_usec: 477140, execution_finish_time_sec: 1410798538, execution_finish_time_usec: 477426, interval_given: 500, current execution time: 286, current_credits: 100
Scheduling Thread: thread_id: 62, current_credits: 100, initial_credits: 100, start_time_sec: 1410798538, start_time_usec: 477439, interval_given: 500
 UTHREAD_DONE, elapsed time: 268, start_time: 477439, finish_time:477707 credits:100
