Before ksched INFO INIT
BEFORE KTHREAD_INIT
Kthread tid: 18994, pid: 18994
Before kthread_credit
After kthread_credit
Before kthread_init runqueue
after kthread_init runqueue
after cpu_affinit
after yield
AFTER KTHREAD_INIT
AFTER SIGHANDLER
num_cpus: 4
INITIALISING VIRTUAL processors
AFTER MALLCO
INSIDE KTHREAD_CREATE
TID of the new kthread: 18996
kthread(1) created !!
INITIALISING VIRTUAL processors
AFTER MALLCO
INSIDE KTHREAD_CREATE
TID of the new kthread: 18997
kthread(2) created !!
INITIALISING VIRTUAL processors
AFTER MALLCO
INSIDE KTHREAD_CREATE
TID of the new kthread: 18998
kthread(3) created !!
Kthread tid: 18996, pid: 18996
Before kthread_credit
After kthread_credit
Before kthread_init runqueue
after kthread_init runqueue
Kthread tid: 18997, pid: 18997
Before kthread_credit
After kthread_credit
Before kthread_init runqueue
after kthread_init runqueue
Kthread tid: 18998, pid: 18998
Before kthread_credit
After kthread_credit
Before kthread_init runqueue
after kthread_init runqueue
after cpu_affinit
after cpu_affinit
after cpu_affinit
after yield
after yield
after yield
group_id: 0, current_row: 0, rows_per_thread: 4, size: 32, credits: 25, inx: 0, NUM_THREADS: 128
Before alloting start time
After alloting start time
group_id: 0, current_row: 4, rows_per_thread: 4, size: 32, credits: 25, inx: 1, NUM_THREADS: 128
Before alloting start time
After alloting start time
group_id: 0, current_row: 8, rows_per_thread: 4, size: 32, credits: 25, inx: 2, NUM_THREADS: 128
Before alloting start time
After alloting start time
group_id: 0, current_row: 12, rows_per_thread: 4, size: 32, credits: 25, inx: 3, NUM_THREADS: 128
Before alloting start time
After alloting start time
group_id: 0, current_row: 16, rows_per_thread: 4, size: 32, credits: 25, inx: 4, NUM_THREADS: 128
Before alloting start time
After alloting start time
group_id: 0, current_row: 20, rows_per_thread: 4, size: 32, credits: 25, inx: 5, NUM_THREADS: 128
Before alloting start time
After alloting start time
group_id: 0, current_row: 24, rows_per_thread: 4, size: 32, credits: 25, inx: 6, NUM_THREADS: 128
Before alloting start time
After alloting start time
group_id: 0, current_row: 28, rows_per_thread: 4, size: 32, credits: 25, inx: 7, NUM_THREADS: 128
Before alloting start time
After alloting start time
group_id: 1, current_row: 0, rows_per_thread: 4, size: 32, credits: 50, inx: 8, NUM_THREADS: 128
Before alloting start time
After alloting start time
group_id: 1, current_row: 4, rows_per_thread: 4, size: 32, credits: 50, inx: 9, NUM_THREADS: 128
Before alloting start time
After alloting start time
group_id: 1, current_row: 8, rows_per_thread: 4, size: 32, credits: 50, inx: 10, NUM_THREADS: 128
Before alloting start time
After alloting start time
group_id: 1, current_row: 12, rows_per_thread: 4, size: 32, credits: 50, inx: 11, NUM_THREADS: 128
Before alloting start time
After alloting start time
group_id: 1, current_row: 16, rows_per_thread: 4, size: 32, credits: 50, inx: 12, NUM_THREADS: 128
Before alloting start time
After alloting start time
group_id: 1, current_row: 20, rows_per_thread: 4, size: 32, credits: 50, inx: 13, NUM_THREADS: 128
Before alloting start time
After alloting start time
group_id: 1, current_row: 24, rows_per_thread: 4, size: 32, credits: 50, inx: 14, NUM_THREADS: 128
Before alloting start time
After alloting start time
group_id: 1, current_row: 28, rows_per_thread: 4, size: 32, credits: 50, inx: 15, NUM_THREADS: 128
Before alloting start time
After alloting start time
group_id: 2, current_row: 0, rows_per_thread: 4, size: 32, credits: 75, inx: 16, NUM_THREADS: 128
Before alloting start time
After alloting start time
group_id: 2, current_row: 4, rows_per_thread: 4, size: 32, credits: 75, inx: 17, NUM_THREADS: 128
Before alloting start time
After alloting start time
group_id: 2, current_row: 8, rows_per_thread: 4, size: 32, credits: 75, inx: 18, NUM_THREADS: 128
Before alloting start time
After alloting start time
group_id: 2, current_row: 12, rows_per_thread: 4, size: 32, credits: 75, inx: 19, NUM_THREADS: 128
Before alloting start time
After alloting start time
group_id: 2, current_row: 16, rows_per_thread: 4, size: 32, credits: 75, inx: 20, NUM_THREADS: 128
Before alloting start time
After alloting start time
group_id: 2, current_row: 20, rows_per_thread: 4, size: 32, credits: 75, inx: 21, NUM_THREADS: 128
Before alloting start time
After alloting start time
group_id: 2, current_row: 24, rows_per_thread: 4, size: 32, credits: 75, inx: 22, NUM_THREADS: 128
Before alloting start time
After alloting start time
group_id: 2, current_row: 28, rows_per_thread: 4, size: 32, credits: 75, inx: 23, NUM_THREADS: 128
Before alloting start time
After alloting start time
group_id: 3, current_row: 0, rows_per_thread: 4, size: 32, credits: 100, inx: 24, NUM_THREADS: 128
Before alloting start time
After alloting start time
group_id: 3, current_row: 4, rows_per_thread: 4, size: 32, credits: 100, inx: 25, NUM_THREADS: 128
Before alloting start time
After alloting start time
group_id: 3, current_row: 8, rows_per_thread: 4, size: 32, credits: 100, inx: 26, NUM_THREADS: 128
Before alloting start time
After alloting start time
group_id: 3, current_row: 12, rows_per_thread: 4, size: 32, credits: 100, inx: 27, NUM_THREADS: 128
Before alloting start time
After alloting start time
group_id: 3, current_row: 16, rows_per_thread: 4, size: 32, credits: 100, inx: 28, NUM_THREADS: 128
Before alloting start time
After alloting start time
group_id: 3, current_row: 20, rows_per_thread: 4, size: 32, credits: 100, inx: 29, NUM_THREADS: 128
Before alloting start time
After alloting start time
group_id: 3, current_row: 24, rows_per_thread: 4, size: 32, credits: 100, inx: 30, NUM_THREADS: 128
Before alloting start time
After alloting start time
group_id: 3, current_row: 28, rows_per_thread: 4, size: 32, credits: 100, inx: 31, NUM_THREADS: 128
Before alloting start time
After alloting start time
group_id: 4, current_row: 0, rows_per_thread: 8, size: 64, credits: 25, inx: 32, NUM_THREADS: 128
Before alloting start time
After alloting start time
group_id: 4, current_row: 8, rows_per_thread: 8, size: 64, credits: 25, inx: 33, NUM_THREADS: 128
Before alloting start time
After alloting start time
group_id: 4, current_row: 16, rows_per_thread: 8, size: 64, credits: 25, inx: 34, NUM_THREADS: 128
Before alloting start time
After alloting start time
group_id: 4, current_row: 24, rows_per_thread: 8, size: 64, credits: 25, inx: 35, NUM_THREADS: 128
Before alloting start time
After alloting start time
group_id: 4, current_row: 32, rows_per_thread: 8, size: 64, credits: 25, inx: 36, NUM_THREADS: 128
Before alloting start time
After alloting start time
group_id: 4, current_row: 40, rows_per_thread: 8, size: 64, credits: 25, inx: 37, NUM_THREADS: 128
Before alloting start time
After alloting start time
group_id: 4, current_row: 48, rows_per_thread: 8, size: 64, credits: 25, inx: 38, NUM_THREADS: 128
Before alloting start time
After alloting start time
group_id: 4, current_row: 56, rows_per_thread: 8, size: 64, credits: 25, inx: 39, NUM_THREADS: 128
Before alloting start time
After alloting start time
group_id: 5, current_row: 0, rows_per_thread: 8, size: 64, credits: 50, inx: 40, NUM_THREADS: 128
Before alloting start time
After alloting start time
group_id: 5, current_row: 8, rows_per_thread: 8, size: 64, credits: 50, inx: 41, NUM_THREADS: 128
Before alloting start time
After alloting start time
group_id: 5, current_row: 16, rows_per_thread: 8, size: 64, credits: 50, inx: 42, NUM_THREADS: 128
Before alloting start time
After alloting start time
group_id: 5, current_row: 24, rows_per_thread: 8, size: 64, credits: 50, inx: 43, NUM_THREADS: 128
Before alloting start time
After alloting start time
group_id: 5, current_row: 32, rows_per_thread: 8, size: 64, credits: 50, inx: 44, NUM_THREADS: 128
Before alloting start time
After alloting start time
group_id: 5, current_row: 40, rows_per_thread: 8, size: 64, credits: 50, inx: 45, NUM_THREADS: 128
Before alloting start time
After alloting start time
group_id: 5, current_row: 48, rows_per_thread: 8, size: 64, credits: 50, inx: 46, NUM_THREADS: 128
Before alloting start time
After alloting start time
group_id: 5, current_row: 56, rows_per_thread: 8, size: 64, credits: 50, inx: 47, NUM_THREADS: 128
Before alloting start time
After alloting start time
group_id: 6, current_row: 0, rows_per_thread: 8, size: 64, credits: 75, inx: 48, NUM_THREADS: 128
Before alloting start time
After alloting start time
group_id: 6, current_row: 8, rows_per_thread: 8, size: 64, credits: 75, inx: 49, NUM_THREADS: 128
Before alloting start time
After alloting start time
group_id: 6, current_row: 16, rows_per_thread: 8, size: 64, credits: 75, inx: 50, NUM_THREADS: 128
Before alloting start time
After alloting start time
group_id: 6, current_row: 24, rows_per_thread: 8, size: 64, credits: 75, inx: 51, NUM_THREADS: 128
Before alloting start time
After alloting start time
group_id: 6, current_row: 32, rows_per_thread: 8, size: 64, credits: 75, inx: 52, NUM_THREADS: 128
Before alloting start time
After alloting start time
group_id: 6, current_row: 40, rows_per_thread: 8, size: 64, credits: 75, inx: 53, NUM_THREADS: 128
Before alloting start time
After alloting start time
group_id: 6, current_row: 48, rows_per_thread: 8, size: 64, credits: 75, inx: 54, NUM_THREADS: 128
Before alloting start time
After alloting start time
group_id: 6, current_row: 56, rows_per_thread: 8, size: 64, credits: 75, inx: 55, NUM_THREADS: 128
Before alloting start time
After alloting start time
group_id: 7, current_row: 0, rows_per_thread: 8, size: 64, credits: 100, inx: 56, NUM_THREADS: 128
Before alloting start time
After alloting start time
group_id: 7, current_row: 8, rows_per_thread: 8, size: 64, credits: 100, inx: 57, NUM_THREADS: 128
Before alloting start time
After alloting start time
group_id: 7, current_row: 16, rows_per_thread: 8, size: 64, credits: 100, inx: 58, NUM_THREADS: 128
Before alloting start time
After alloting start time
group_id: 7, current_row: 24, rows_per_thread: 8, size: 64, credits: 100, inx: 59, NUM_THREADS: 128
Before alloting start time
After alloting start time
group_id: 7, current_row: 32, rows_per_thread: 8, size: 64, credits: 100, inx: 60, NUM_THREADS: 128
Before alloting start time
After alloting start time
group_id: 7, current_row: 40, rows_per_thread: 8, size: 64, credits: 100, inx: 61, NUM_THREADS: 128
Before alloting start time
After alloting start time
group_id: 7, current_row: 48, rows_per_thread: 8, size: 64, credits: 100, inx: 62, NUM_THREADS: 128
Before alloting start time
After alloting start time
group_id: 7, current_row: 56, rows_per_thread: 8, size: 64, credits: 100, inx: 63, NUM_THREADS: 128
Before alloting start time
After alloting start time
group_id: 8, current_row: 0, rows_per_thread: 16, size: 128, credits: 25, inx: 64, NUM_THREADS: 128
Before alloting start time
After alloting start time
group_id: 8, current_row: 16, rows_per_thread: 16, size: 128, credits: 25, inx: 65, NUM_THREADS: 128
Before alloting start time
After alloting start time
group_id: 8, current_row: 32, rows_per_thread: 16, size: 128, credits: 25, inx: 66, NUM_THREADS: 128
Before alloting start time
After alloting start time
group_id: 8, current_row: 48, rows_per_thread: 16, size: 128, credits: 25, inx: 67, NUM_THREADS: 128
Before alloting start time
After alloting start time
group_id: 8, current_row: 64, rows_per_thread: 16, size: 128, credits: 25, inx: 68, NUM_THREADS: 128
Before alloting start time
After alloting start time
group_id: 8, current_row: 80, rows_per_thread: 16, size: 128, credits: 25, inx: 69, NUM_THREADS: 128
Before alloting start time
After alloting start time
group_id: 8, current_row: 96, rows_per_thread: 16, size: 128, credits: 25, inx: 70, NUM_THREADS: 128
Before alloting start time
After alloting start time
group_id: 8, current_row: 112, rows_per_thread: 16, size: 128, credits: 25, inx: 71, NUM_THREADS: 128
Before alloting start time
After alloting start time
group_id: 9, current_row: 0, rows_per_thread: 16, size: 128, credits: 50, inx: 72, NUM_THREADS: 128
Before alloting start time
After alloting start time
group_id: 9, current_row: 16, rows_per_thread: 16, size: 128, credits: 50, inx: 73, NUM_THREADS: 128
Before alloting start time
After alloting start time
group_id: 9, current_row: 32, rows_per_thread: 16, size: 128, credits: 50, inx: 74, NUM_THREADS: 128
Before alloting start time
After alloting start time
group_id: 9, current_row: 48, rows_per_thread: 16, size: 128, credits: 50, inx: 75, NUM_THREADS: 128
Before alloting start time
After alloting start time
group_id: 9, current_row: 64, rows_per_thread: 16, size: 128, credits: 50, inx: 76, NUM_THREADS: 128
Before alloting start time
After alloting start time
group_id: 9, current_row: 80, rows_per_thread: 16, size: 128, credits: 50, inx: 77, NUM_THREADS: 128
Before alloting start time
After alloting start time
group_id: 9, current_row: 96, rows_per_thread: 16, size: 128, credits: 50, inx: 78, NUM_THREADS: 128
Before alloting start time
After alloting start time
group_id: 9, current_row: 112, rows_per_thread: 16, size: 128, credits: 50, inx: 79, NUM_THREADS: 128
Before alloting start time
After alloting start time
group_id: 10, current_row: 0, rows_per_thread: 16, size: 128, credits: 75, inx: 80, NUM_THREADS: 128
Before alloting start time
After alloting start time
group_id: 10, current_row: 16, rows_per_thread: 16, size: 128, credits: 75, inx: 81, NUM_THREADS: 128
Before alloting start time
After alloting start time
group_id: 10, current_row: 32, rows_per_thread: 16, size: 128, credits: 75, inx: 82, NUM_THREADS: 128
Before alloting start time
After alloting start time
group_id: 10, current_row: 48, rows_per_thread: 16, size: 128, credits: 75, inx: 83, NUM_THREADS: 128
Before alloting start time
After alloting start time
group_id: 10, current_row: 64, rows_per_thread: 16, size: 128, credits: 75, inx: 84, NUM_THREADS: 128
Before alloting start time
After alloting start time
group_id: 10, current_row: 80, rows_per_thread: 16, size: 128, credits: 75, inx: 85, NUM_THREADS: 128
Before alloting start time
After alloting start time
group_id: 10, current_row: 96, rows_per_thread: 16, size: 128, credits: 75, inx: 86, NUM_THREADS: 128
Before alloting start time
After alloting start time
group_id: 10, current_row: 112, rows_per_thread: 16, size: 128, credits: 75, inx: 87, NUM_THREADS: 128
Before alloting start time
After alloting start time
group_id: 11, current_row: 0, rows_per_thread: 16, size: 128, credits: 100, inx: 88, NUM_THREADS: 128
Before alloting start time
After alloting start time
group_id: 11, current_row: 16, rows_per_thread: 16, size: 128, credits: 100, inx: 89, NUM_THREADS: 128
Before alloting start time
After alloting start time
group_id: 11, current_row: 32, rows_per_thread: 16, size: 128, credits: 100, inx: 90, NUM_THREADS: 128
Before alloting start time
After alloting start time
group_id: 11, current_row: 48, rows_per_thread: 16, size: 128, credits: 100, inx: 91, NUM_THREADS: 128
Before alloting start time
After alloting start time
group_id: 11, current_row: 64, rows_per_thread: 16, size: 128, credits: 100, inx: 92, NUM_THREADS: 128
Before alloting start time
After alloting start time
group_id: 11, current_row: 80, rows_per_thread: 16, size: 128, credits: 100, inx: 93, NUM_THREADS: 128
Before alloting start time
After alloting start time
group_id: 11, current_row: 96, rows_per_thread: 16, size: 128, credits: 100, inx: 94, NUM_THREADS: 128
Before alloting start time
After alloting start time
group_id: 11, current_row: 112, rows_per_thread: 16, size: 128, credits: 100, inx: 95, NUM_THREADS: 128
Before alloting start time
After alloting start time
group_id: 12, current_row: 0, rows_per_thread: 32, size: 256, credits: 25, inx: 96, NUM_THREADS: 128
Before alloting start time
After alloting start time
group_id: 12, current_row: 32, rows_per_thread: 32, size: 256, credits: 25, inx: 97, NUM_THREADS: 128
Before alloting start time
After alloting start time
group_id: 12, current_row: 64, rows_per_thread: 32, size: 256, credits: 25, inx: 98, NUM_THREADS: 128
Before alloting start time
After alloting start time
group_id: 12, current_row: 96, rows_per_thread: 32, size: 256, credits: 25, inx: 99, NUM_THREADS: 128
Before alloting start time
After alloting start time
group_id: 12, current_row: 128, rows_per_thread: 32, size: 256, credits: 25, inx: 100, NUM_THREADS: 128
Before alloting start time
After alloting start time
group_id: 12, current_row: 160, rows_per_thread: 32, size: 256, credits: 25, inx: 101, NUM_THREADS: 128
Before alloting start time
After alloting start time
group_id: 12, current_row: 192, rows_per_thread: 32, size: 256, credits: 25, inx: 102, NUM_THREADS: 128
Before alloting start time
After alloting start time
group_id: 12, current_row: 224, rows_per_thread: 32, size: 256, credits: 25, inx: 103, NUM_THREADS: 128
Scheduling Thread: thread_id: 2, current_credits: 25group_id: 13edits: 25, start_time_sec: , current_32, size: 256, credits: 50, inx: al_given: 125
 104, NUM_THREADS: 128
Before alloting start time
After alloting start time
group_id: 13, current_row: 32, rows_per_thread: 32, size: 256, credits: 50, inx: 105, NUM_THREADS: 128
Before alloting start time
After alloting start time
group_id: 13, current_row: 64, rows_per_thread: 32, size: 256, credits: 50, inx: 106, NUM_THREADS: 128
Before alloting start time
After alloting start time
group_id: 13, current_row: 96, rows_per_thread: 32, size: 256, credits: 50, inx: 107, NUM_THREADS: 128
Before alloting start time
After alloting start time
group_id: 13, current_row: 128, rows_per_thread: 32, size: 256, credits: 50, inx: 108, NUM_THREADS: 128
Before alloting start time
After alloting start time
group_id: 13, current_row: 160, rows_per_thread: 32, size: 256, credits: 50, inx: 109, NUM_THREADS: 128
Before alloting start time
After alloting start time
group_id: 13, current_row: 192, rows_per_thread: 32, size: 256, credits: 50, inx: 110, NUM_THREADS: 128
Before alloting start time
After alloting start time
group_id: 13, current_row: 224, rows_per_thread: 32, size: 256, credits: 50, inx: 111, NUM_THREADS: 128
Before alloting start time
After alloting start time
group_id: 14, current_row: 0, rows_per_thread: 32, size: 256, credits: 75, inx: 112, NUM_THREADS: 128
Before alloting start time
After alloting start time
group_id: 14, current_row: 32, rows_per_thread: 32, size: 256, credits: 75, inx: 113, NUM_THREADS: 128
Before alloting start time
After alloting start time
group_id: 14, current_row: 64, rows_per_thread: 32, size: 256, credits: 75, inx: 114, NUM_THREADS: 128
Before alloting start time
After alloting start time
group_id: 14, current_row: 96, rows_per_thread: 32, size: 256, credits: 75, inx: 115, NUM_THREADS: 128
UTHREAD_DONE, elapsed time: 41, start_time: 163879, finish_time:163920 credits:25
UTHREAD_DONE, thread_id: 2, initial_credits: 25, execution_start_time_sec: 1410743907, execution_start_time_usec: 163879, execution_finish_time_sec: 1410743907, execution_finish_time_usec: 163920Before alloting st125, currAfter alloting start41, current_credits: 25group_id: 14, current_row: 128, rows_per_thread: 32, size: 256, credits: 75, inx: 116, NUM_THREADS: 128
Before alloting start time
After alloting start time
group_id: 14, current_row: 160, rows_per_thread: 32, size: 256, credits: 75, inx: 117, NUM_THREADS: 128
Before alloting start time
After alloting start time
group_id: 14, current_row: 192, rows_per_thread: 32, size: 256, credits: 75, inx: 118, NUM_THREADS: 128
Before alloting start time
After alloting start time
group_id: 14, current_row: 224, rows_per_thread: 32, size: 256, credits: 75, inx: 119, NUM_THREADS: 128
Before alloting start time
After alloting start time
group_id: 15, current_row: 0, rows_per_thread: 32, size: 256, credits: 100, inx: 120, NUM_THREADS: 128
Scheduling Thread: thread_id: 6, current_credits: 25, initial_credits: 25, start_time_sec: 1410743907, start_time_usec: 163943, interval_given: 125
 Before alloting start time
After alloting start time
group_id: 15, current_row: 32, rows_per_thread: 32, size: 256, credits: 100, inx: 121, NUM_THREADS: 128
Before alloting start time
After alloting start time
group_id: 15, current_row: 64, rows_per_thread: 32, size: 256, credits: 100, inx: 122, NUM_THREADS: 128
Before alloting start time
After alloting start time
group_id: 15, current_row: 96, rows_per_thread: 32, size: 256, credits: 100, inx: 123, NUM_THREADS: 128
Before alloting start time
After alloting start time
group_id: 15, current_row: 128, rows_per_thread: 32, size: 256, credits: 100, inx: 124, NUM_THREADS: 128
Before alloting start time
After alloting start time
group_id: 15, current_row: 160, rows_per_thread: 32, size: 256, credits: 100, inx: 125, NUM_THREADS: 128
Before alloting start time
After alloting start time
group_id: 15, current_row: 192, rows_per_thread: 32, size: 256, credits: 100, inx: 126, NUM_THREADS: 128
Before alloting start time
After alloting start time
group_id: 15, current_row: 224, rows_per_thread: 32, size: 256, credits: 100, inx: 127, NUM_THREADS: 128
Before alloting start time
After alloting start time
UTHREAD_DONE, elapsed time: 34, start_time: 163943, finish_time:163977 credits:25
UTHREAD_DONE, thread_id: 6, initial_credits: 25, execution_start_time_sec: 1410743907, execution_start_time_usec: 163943, execution_finish_time_sec: 1410743907, execution_finish_time_usec: 163977, interval_given: 125, current execution time: 34, current_credits: 25
Scheduling Thread: thread_id: 10, current_credits: 50, initial_credits: 50, start_time_sec: 1410743907, start_time_usec: 163994, interval_given: 250
 UTHREAD_DONE, elapsed time: 37, start_time: 163994, finish_time:164031 credits:50
UTHREAD_DONE, thread_id: 10, initial_credits: 50, execution_start_time_sec: 1410743907, execution_start_time_usec: 163994, execution_finish_time_sec: 1410743907, execution_finish_time_usec: 164031, interval_given: 250, current execution time: 37, current_credits: 50
Scheduling Thread: thread_id: 14, current_credits: 50, initial_credits: 50, start_time_sec: 1410743907, start_time_usec: 164043, interval_given: 250
 UTHREAD_DONE, elapsed time: 34, start_time: 164043, finish_time:164077 credits:50
UTHREAD_DONE, thread_id: 14, initial_credits: 50, execution_start_time_sec: 1410743907, execution_start_time_usec: 164043, execution_finish_time_sec: 1410743907, execution_finish_time_usec: 164077, interval_given: 250, current execution time: 34, current_credits: 50
Scheduling Thread: thread_id: 18, current_credits: 75, initial_credits: 75, start_time_sec: 1410743907, start_time_usec: 164092, interval_given: 375
 UTHREAD_DONE, elapsed time: 37, start_time: 164092, finish_time:164129 credits:75
UTHREAD_DONE, thread_id: 18, initial_credits: 75, execution_start_time_sec: 1410743907, execution_start_time_usec: 164092, execution_finish_time_sec: 1410743907, execution_finish_time_usec: 164129, interval_given: 375, current execution time: 37, current_credits: 75
Scheduling Thread: thread_id: 22, current_credits: 75, initial_credits: 75, start_time_sec: 1410743907, start_time_usec: 164140, interval_given: 375
 UTHREAD_DONE, elapsed time: 41, start_time: 164140, finish_time:164181 credits:75
UTHREAD_DONE, thread_id: 22, initial_credits: 75, execution_start_time_sec: 1410743907, execution_start_time_usec: 164140, execution_finish_time_sec: 1410743907, execution_finish_time_usec: 164181, interval_given: 375, current execution time: 41, current_credits: 75
Scheduling Thread: thread_id: 26, current_credits: 100, initial_credits: 100, start_time_sec: 1410743907, start_time_usec: 164195, interval_given: 500
 UTHREAD_DONE, elapsed time: 35, start_time: 164195, finish_time:164230 credits:100
UTHREAD_DONE, thread_id: 26, initial_credits: 100, execution_start_time_sec: 1410743907, execution_start_time_usec: 164195, execution_finish_time_sec: 1410743907, execution_finish_time_usec: 164230, interval_given: 500, current execution time: 35, current_credits: 100
Scheduling Thread: thread_id: 30, current_credits: 100, initial_credits: 100, start_time_sec: 1410743907, start_time_usec: 164246, interval_given: 500
 UTHREAD_DONE, elapsed time: 33, start_time: 164246, finish_time:164279 credits:100
UTHREAD_DONE, thread_id: 30, initial_credits: 100, execution_start_time_sec: 1410743907, execution_start_time_usec: 164246, execution_finish_time_sec: 1410743907, execution_finish_time_usec: 164279, interval_given: 500, current execution time: 33, current_credits: 100
Scheduling Thread: thread_id: 34, current_credits: 25, initial_credits: 25, start_time_sec: 1410743907, start_time_usec: 164298, interval_given: 125
 UTHREAD_DONE, elapsed time: 262, start_time: 164298, finish_time:164560 credits:25
************Error: elapsed_time_current > interval_given
start_time_sec: 1410743907, start_time_usec: 164298, finish_time: 1410743907, finish_time_usec: 164560
UTHREAD_DONE, thread_id: 34, initial_credits: 25, execution_start_time_sec: 1410743907, execution_start_time_usec: 164298, execution_finish_time_sec: 1410743907, execution_finish_time_usec: 164560, interval_given: 125, current execution time: 262, current_credits: 25
Scheduling Thread: thread_id: 38, current_credits: 25, initial_credits: 25, start_time_sec: 1410743907, start_time_usec: 164575, interval_given: 125
 UTHREAD_DONE, elapsed time: 272, start_time: 164575, finish_time:164847 credits:25
************Error: elapsed_time_current > interval_given
start_time_sec: 1410743907, start_time_usec: 164575, finish_time: 1410743907, finish_time_usec: 164847
UTHREAD_DONE, thread_id: 38, initial_credits: 25, execution_start_time_sec: 1410743907, execution_start_time_usec: 164575, execution_finish_time_sec: 1410743907, execution_finish_time_usec: 164847, interval_given: 125, current execution time: 272, current_credits: 25
Scheduling Thread: thread_id: 42, current_credits: 50, initial_credits: 50, start_time_sec: 1410743907, start_time_usec: 164862, interval_given: 250
 UTHREAD_DONE, elapsed time: 259, start_time: 164862, finish_time:165121 credits:50
************Error: elapsed_time_current > interval_given
start_time_sec: 1410743907, start_time_usec: 164862, finish_time: 1410743907, finish_time_usec: 165121
UTHREAD_DONE, thread_id: 42, initial_credits: 50, execution_start_time_sec: 1410743907, execution_start_time_usec: 164862, execution_finish_time_sec: 1410743907, execution_finish_time_usec: 165121, interval_given: 250, current execution time: 259, current_credits: 50
Scheduling Thread: thread_id: 46, current_credits: 50, initial_credits: 50, start_time_sec: 1410743907, start_time_usec: 165136, interval_given: 250
 UTHREAD_DONE, elapsed time: 261, start_time: 165136, finish_time:165397 credits:50
************Error: elapsed_time_current > interval_given
start_time_sec: 1410743907, start_time_usec: 165136, finish_time: 1410743907, finish_time_usec: 165397
UTHREAD_DONE, thread_id: 46, initial_credits: 50, execution_start_time_sec: 1410743907, execution_start_time_usec: 165136, execution_finish_time_sec: 1410743907, execution_finish_time_usec: 165397, interval_given: 250, current execution time: 261, current_credits: 50
Scheduling Thread: thread_id: 50, current_credits: 75, initial_credits: 75, start_time_sec: 1410743907, start_time_usec: 165414, interval_given: 375
 UTHREAD_DONE, elapsed time: 265, start_time: 165414, finish_time:165679 credits:75
UTHREAD_DONE, thread_id: 50, initial_credits: 75, execution_start_time_sec: 1410743907, execution_start_time_usec: 165414, execution_finish_time_sec: 1410743907, execution_finish_time_usec: 165679, interval_given: 375, current execution time: 265, current_credits: 75
Scheduling Thread: thread_id: 54, current_credits: 75, initial_credits: 75, start_time_sec: 1410743907, start_time_usec: 165690, interval_given: 375
 UTHREAD_DONE, elapsed time: 265, start_time: 165690, finish_time:165955 credits:75
UTHREAD_DONE, thread_id: 54, initial_credits: 75, execution_start_time_sec: 1410743907, execution_start_time_usec: 165690, execution_finish_time_sec: 1410743907, execution_finish_time_usec: 165955, interval_given: 375, current execution time: 265, current_credits: 75
Scheduling Thread: thread_id: 58, current_credits: 100, initial_credits: 100, start_time_sec: 1410743907, start_time_usec: 165971, interval_given: 500
 UTHREAD_DONE, elapsed time: 263, start_time: 165971, finish_time:166234 credits:100
UTHREAD_DONE, thread_id: 58, initial_credits: 100, execution_start_time_sec: 1410743907, execution_start_time_usec: 165971, execution_finish_time_sec: 1410743907, execution_finish_time_usec: 166234, interval_given: 500, current execution time: 263, current_credits: 100
Scheduling Thread: thread_id: 62, current_credits: 100, initial_credits: 100, start_time_sec: 1410743907, start_time_usec: 166271, interval_given: 500
 UTHREAD_DONE, elapsed time: 260, start_time: 166271, finish_time:166531 credits:100
UTHREAD_DONE, thread_id: 62, initial_credits: 100, execution_start_time_sec: 1410743907, execution_start_time_usec: 166271, execution_finish_time_sec: 1410743907, execution_finish_time_usec: 166531, interval_given: 500, current execution time: 260, current_credits: 100
Scheduling Thread: thread_id: 66, current_credits: 25, initial_credits: 25, start_time_sec: 1410743907, start_time_usec: 166543, interval_given: 125
 Scheduling Thread: thread_id: 1, current_credits: 25, initial_credits: 25, start_time_sec: 1410743907, start_time_usec: 183729, interval_given: 125
 UTHREAD_DONE, elapsed time: 42, start_time: 183729, finish_time:183771 credits:25
UTHREAD_DONE, thread_id: 1, initial_credits: 25, execution_start_time_sec: 1410743907, execution_start_time_usec: 183729, execution_finish_time_sec: 1410743907, execution_finish_time_usec: 183771, interval_given: 125, current execution time: 42, current_credits: 25
Scheduling Thread: thread_id: 5, current_credits: 25, initial_credits: 25, start_time_sec: 1410743907, start_time_usec: 183784, interval_given: 125
 UTHREAD_DONE, elapsed time: 34, start_time: 183784, finish_time:183818 credits:25
UTHREAD_DONE, thread_id: 5, initial_credits: 25, execution_start_time_sec: 1410743907, execution_start_time_usec: 183784, execution_finish_time_sec: 1410743907, execution_finish_time_usec: 183818, interval_given: 125, current execution time: 34, current_credits: 25
Scheduling Thread: thread_id: 9, current_credits: 50, initial_credits: 50, start_time_sec: 1410743907, start_time_usec: 183835, interval_given: 250
 UTHREAD_DONE, elapsed time: 48, start_time: 183835, finish_time:183883 credits:50
UTHREAD_DONE, thread_id: 9, initial_credits: 50, execution_start_time_sec: 1410743907, execution_start_time_usec: 183835, execution_finish_time_sec: 1410743907, execution_finish_time_usec: 183883, interval_given: 250, current execution time: 48, current_credits: 50
Scheduling Thread: thread_id: 13, current_credits: 50, initial_credits: 50, start_time_sec: 1410743907, start_time_usec: 183898, interval_given: 250
 UTHREAD_DONE, elapsed time: 33, start_time: 183898, finish_time:183931 credits:50
UTHREAD_DONE, thread_id: 13, initial_credits: 50, execution_start_time_sec: 1410743907, execution_start_time_usec: 183898, execution_finish_time_sec: 1410743907, execution_finish_time_usec: 183931, interval_given: 250, current execution time: 33, current_credits: 50
Scheduling Thread: thread_id: 17, current_credits: 75, initial_credits: 75, start_time_sec: 1410743907, start_time_usec: 183954, interval_given: 375
 UTHREAD_DONE, elapsed time: 55, start_time: 183954, finish_time:184009 credits:75
UTHREAD_DONE, thread_id: 17, initial_credits: 75, execution_start_time_sec: 1410743907, execution_start_time_usec: 183954, execution_finish_time_sec: 1410743907, execution_finish_time_usec: 184009, interval_given: 375, current execution time: 55, current_credits: 75
Scheduling Thread: thread_id: 21, current_credits: 75, initial_credits: 75, start_time_sec: 1410743907, start_time_usec: 184027, interval_given: 375
 UTHREAD_DONE, elapsed time: 36, start_time: 184027, finish_time:184063 credits:75
UTHREAD_DONE, thread_id: 21, initial_credits: 75, execution_start_time_sec: 1410743907, execution_start_time_usec: 184027, execution_finish_time_sec: 1410743907, execution_finish_time_usec: 184063, interval_given: 375, current execution time: 36, current_credits: 75
Scheduling Thread: thread_id: 25, current_credits: 100, initial_credits: 100, start_time_sec: 1410743907, start_time_usec: 184074, interval_given: 500
 UTHREAD_DONE, elapsed time: 35, start_time: 184074, finish_time:184109 credits:100
UTHREAD_DONE, thread_id: 25, initial_credits: 100, execution_start_time_sec: 1410743907, execution_start_time_usec: 184074, execution_finish_time_sec: 1410743907, execution_finish_time_usec: 184109, interval_given: 500, current execution time: 35, current_credits: 100
Scheduling Thread: thread_id: 29, current_credits: 100, initial_credits: 100, start_time_sec: 1410743907, start_time_usec: 184141, interval_given: 500
 UTHREAD_DONE, elapsed time: 34, start_time: 184141, finish_time:184175 credits:100
UTHREAD_DONE, thread_id: 29, initial_credits: 100, execution_start_time_sec: 1410743907, execution_start_time_usec: 184141, execution_finish_time_sec: 1410743907, execution_finish_time_usec: 184175, interval_given: 500, current execution time: 34, current_credits: 100
Scheduling Thread: thread_id: 33, current_credits: 25, initial_credits: 25, start_time_sec: 1410743907, start_time_usec: 184186, interval_given: 125
 UTHREAD_DONE, elapsed time: 267, start_time: 184186, finish_time:184453 credits:25
************Error: elapsed_time_current > interval_given
start_time_sec: 1410743907, start_time_usec: 184186, finish_time: 1410743907, finish_time_usec: 184453
UTHREAD_DONE, thread_id: 33, initial_credits: 25, execution_start_time_sec: 1410743907, execution_start_time_usec: 184186, execution_finish_time_sec: 1410743907, execution_finish_time_usec: 184453, interval_given: 125, current execution time: 267, current_credits: 25
Scheduling Thread: thread_id: 37, current_credits: 25, initial_credits: 25, start_time_sec: 1410743907, start_time_usec: 184467, interval_given: 125
 UTHREAD_DONE, elapsed time: 267, start_time: 184467, finish_time:184734 credits:25
************Error: elapsed_time_current > interval_given
start_time_sec: 1410743907, start_time_usec: 184467, finish_time: 1410743907, finish_time_usec: 184734
UTHREAD_DONE, thread_id: 37, initial_credits: 25, execution_start_time_sec: 1410743907, execution_start_time_usec: 184467, execution_finish_time_sec: 1410743907, execution_finish_time_usec: 184734, interval_given: 125, current execution time: 267, current_credits: 25
Scheduling Thread: thread_id: 41, current_credits: 50, initial_credits: 50, start_time_sec: 1410743907, start_time_usec: 184751, interval_given: 250
 UTHREAD_DONE, elapsed time: 262, start_time: 184751, finish_time:185013 credits:50
************Error: elapsed_time_current > interval_given
start_time_sec: 1410743907, start_time_usec: 184751, finish_time: 1410743907, finish_time_usec: 185013
UTHREAD_DONE, thread_id: 41, initial_credits: 50, execution_start_time_sec: 1410743907, execution_start_time_usec: 184751, execution_finish_time_sec: 1410743907, execution_finish_time_usec: 185013, interval_given: 250, current execution time: 262, current_credits: 50
Scheduling Thread: thread_id: 45, current_credits: 50, initial_credits: 50, start_time_sec: 1410743907, start_time_usec: 185025, interval_given: 250
 UTHREAD_DONE, elapsed time: 264, start_time: 185025, finish_time:185289 credits:50
************Error: elapsed_time_current > interval_given
start_time_sec: 1410743907, start_time_usec: 185025, finish_time: 1410743907, finish_time_usec: 185289
UTHREAD_DONE, thread_id: 45, initial_credits: 50, execution_start_time_sec: 1410743907, execution_start_time_usec: 185025, execution_finish_time_sec: 1410743907, execution_finish_time_usec: 185289, interval_given: 250, current execution time: 264, current_credits: 50
Scheduling Thread: thread_id: 49, current_credits: 75, initial_credits: 75, start_time_sec: 1410743907, start_time_usec: 185306, interval_given: 375
 UTHREAD_DONE, elapsed time: 262, start_time: 185306, finish_time:185568 credits:75
UTHREAD_DONE, thread_id: 49, initial_credits: 75, execution_start_time_sec: 1410743907, execution_start_time_usec: 185306, execution_finish_time_sec: 1410743907, execution_finish_time_usec: 185568, interval_given: 375, current execution time: 262, current_credits: 75
Scheduling Thread: thread_id: 53, current_credits: 75, initial_credits: 75, start_time_sec: 1410743907, start_time_usec: 185579, interval_given: 375
 UTHREAD_DONE, elapsed time: 267, start_time: 185579, finish_time:185846 credits:75
UTHREAD_DONE, thread_id: 53, initial_credits: 75, execution_start_time_sec: 1410743907, execution_start_time_usec: 185579, execution_finish_time_sec: 1410743907, execution_finish_time_usec: 185846, interval_given: 375, current execution time: 267, current_credits: 75
Scheduling Thread: thread_id: 57, current_credits: 100, initial_credits: 100, start_time_sec: 1410743907, start_time_usec: 185870, interval_given: 500
 UTHREAD_DONE, elapsed time: 270, start_time: 185870, finish_time:186140 credits:100
UTHREAD_DONE, thread_id: 57, initial_credits: 100, execution_start_time_sec: 1410743907, execution_start_time_usec: 185870, execution_finish_time_sec: 1410743907, execution_finish_time_usec: 186140, interval_given: 500, current execution time: 270, current_credits: 100
Scheduling Thread: thread_id: 61, current_credits: 100, initial_credits: 100, start_time_sec: 1410743907, start_time_usec: 186158, interval_given: 500
 UTHREAD_DONE, elapsed time: 255, start_time: 186158, finish_time:186413 credits:100
UTHREAD_DONE, thread_id: 61, initial_credits: 100, execution_start_time_sec: 1410743907, execution_start_time_usec: 186158, execution_finish_time_sec: 1410743907, execution_finish_time_usec: 186413, interval_given: 500, current execution time: 255, current_credits: 100
Scheduling Thread: thread_id: 65, current_credits: 25, initial_credits: 25, start_time_sec: 1410743907, start_time_usec: 186424, interval_given: 125
 Scheduling Thread: thread_id: 3, current_credits: 25, initial_credits: 25, start_time_sec: 1410743907, start_time_usec: 191833, interval_given: 125
 UTHREAD_DONE, elapsed time: 0, start_time: 191833, finish_time:191833 credits:25
UTHREAD_DONE, thread_id: 3, initial_credits: 25, execution_start_time_sec: 1410743907, execution_start_time_usec: 191833, execution_finish_time_sec: 1410743907, execution_finish_time_usec: 191833, interval_given: 125, current execution time: 0, current_credits: 25
Scheduling Thread: thread_id: 7, current_credits: 25, initial_credits: 25, start_time_sec: 1410743907, start_time_usec: 191833, interval_given: 125
 UTHREAD_DONE, elapsed time: 0, start_time: 191833, finish_time:191833 credits:25
UTHREAD_DONE, thread_id: 7, initial_credits: 25, execution_start_time_sec: 1410743907, execution_start_time_usec: 191833, execution_finish_time_sec: 1410743907, execution_finish_time_usec: 191833, interval_given: 125, current execution time: 0, current_credits: 25
Scheduling Thread: thread_id: 11, current_credits: 50, initial_credits: 50, start_time_sec: 1410743907, start_time_usec: 191833, interval_given: 250
 UTHREAD_DONE, elapsed time: 0, start_time: 191833, finish_time:191833 credits:50
UTHREAD_DONE, thread_id: 11, initial_credits: 50, execution_start_time_sec: 1410743907, execution_start_time_usec: 191833, execution_finish_time_sec: 1410743907, execution_finish_time_usec: 191833, interval_given: 250, current execution time: 0, current_credits: 50
Scheduling Thread: thread_id: 15, current_credits: 50, initial_credits: 50, start_time_sec: 1410743907, start_time_usec: 191833, interval_given: 250
 UTHREAD_DONE, elapsed time: 0, start_time: 191833, finish_time:191833 credits:50
UTHREAD_DONE, thread_id: 15, initial_credits: 50, execution_start_time_sec: 1410743907, execution_start_time_usec: 191833, execution_finish_time_sec: 1410743907, execution_finish_time_usec: 191833, interval_given: 250, current execution time: 0, current_credits: 50
Scheduling Thread: thread_id: 19, current_credits: 75, initial_credits: 75, start_time_sec: 1410743907, start_time_usec: 191833, interval_given: 375
 UTHREAD_DONE, elapsed time: 0, start_time: 191833, finish_time:191833 credits:75
UTHREAD_DONE, thread_id: 19, initial_credits: 75, execution_start_time_sec: 1410743907, execution_start_time_usec: 191833, execution_finish_time_sec: 1410743907, execution_finish_time_usec: 191833, interval_given: 375, current execution time: 0, current_credits: 75
Scheduling Thread: thread_id: 23, current_credits: 75, initial_credits: 75, start_time_sec: 1410743907, start_time_usec: 191833, interval_given: 375
 UTHREAD_DONE, elapsed time: 0, start_time: 191833, finish_time:191833 credits:75
UTHREAD_DONE, thread_id: 23, initial_credits: 75, execution_start_time_sec: 1410743907, execution_start_time_usec: 191833, execution_finish_time_sec: 1410743907, execution_finish_time_usec: 191833, interval_given: 375, current execution time: 0, current_credits: 75
Scheduling Thread: thread_id: 27, current_credits: 100, initial_credits: 100, start_time_sec: 1410743907, start_time_usec: 191845, interval_given: 500
 UTHREAD_DONE, elapsed time: 35, start_time: 191845, finish_time:191880 credits:100
UTHREAD_DONE, thread_id: 27, initial_credits: 100, execution_start_time_sec: 1410743907, execution_start_time_usec: 191845, execution_finish_time_sec: 1410743907, execution_finish_time_usec: 191880, interval_given: 500, current execution time: 35, current_credits: 100
Scheduling Thread: thread_id: 31, current_credits: 100, initial_credits: 100, start_time_sec: 1410743907, start_time_usec: 191893, interval_given: 500
 UTHREAD_DONE, elapsed time: 34, start_time: 191893, finish_time:191927 credits:100
UTHREAD_DONE, thread_id: 31, initial_credits: 100, execution_start_time_sec: 1410743907, execution_start_time_usec: 191893, execution_finish_time_sec: 1410743907, execution_finish_time_usec: 191927, interval_given: 500, current execution time: 34, current_credits: 100
Scheduling Thread: thread_id: 35, current_credits: 25, initial_credits: 25, start_time_sec: 1410743907, start_time_usec: 191938, interval_given: 125
 UTHREAD_DONE, elapsed time: 270, start_time: 191938, finish_time:192208 credits:25
************Error: elapsed_time_current > interval_given
start_time_sec: 1410743907, start_time_usec: 191938, finish_time: 1410743907, finish_time_usec: 192208
UTHREAD_DONE, thread_id: 35, initial_credits: 25, execution_start_time_sec: 1410743907, execution_start_time_usec: 191938, execution_finish_time_sec: 1410743907, execution_finish_time_usec: 192208, interval_given: 125, current execution time: 270, current_credits: 25
Scheduling Thread: thread_id: 39, current_credits: 25, initial_credits: 25, start_time_sec: 1410743907, start_time_usec: 192227, interval_given: 125
 UTHREAD_DONE, elapsed time: 479, start_time: 192227, finish_time:192706 credits:25
************Error: elapsed_time_current > interval_given
start_time_sec: 1410743907, start_time_usec: 192227, finish_time: 1410743907, finish_time_usec: 192706
UTHREAD_DONE, thread_id: 39, initial_credits: 25, execution_start_time_sec: 1410743907, execution_start_time_usec: 192227, execution_finish_time_sec: 1410743907, execution_finish_time_usec: 192706, interval_given: 125, current execution time: 479, current_credits: 25
Scheduling Thread: thread_id: 43, current_credits: 50, initial_credits: 50, start_time_sec: 1410743907, start_time_usec: 192833, interval_given: 250
 UTHREAD_DONE, elapsed time: 0, start_time: 192833, finish_time:192833 credits:50
UTHREAD_DONE, thread_id: 43, initial_credits: 50, execution_start_time_sec: 1410743907, execution_start_time_usec: 192833, execution_finish_time_sec: 1410743907, execution_finish_time_usec: 192833, interval_given: 250, current execution time: 0, current_credits: 50
Scheduling Thread: thread_id: 47, current_credits: 50, initial_credits: 50, start_time_sec: 1410743907, start_time_usec: 192833, interval_given: 250
 UTHREAD_DONE, elapsed time: 238, start_time: 192833, finish_time:193071 credits:50
UTHREAD_DONE, thread_id: 47, initial_credits: 50, execution_start_time_sec: 1410743907, execution_start_time_usec: 192833, execution_finish_time_sec: 1410743907, execution_finish_time_usec: 193071, interval_given: 250, current execution time: 238, current_credits: 50
Scheduling Thread: thread_id: 51, current_credits: 75, initial_credits: 75, start_time_sec: 1410743907, start_time_usec: 193085, interval_given: 375
 UTHREAD_DONE, elapsed time: 497, start_time: 193085, finish_time:193582 credits:75
************Error: elapsed_time_current > interval_given
start_time_sec: 1410743907, start_time_usec: 193085, finish_time: 1410743907, finish_time_usec: 193582
UTHREAD_DONE, thread_id: 51, initial_credits: 75, execution_start_time_sec: 1410743907, execution_start_time_usec: 193085, execution_finish_time_sec: 1410743907, execution_finish_time_usec: 193582, interval_given: 375, current execution time: 497, current_credits: 75
Scheduling Thread: thread_id: 55, current_credits: 75, initial_credits: 75, start_time_sec: 1410743907, start_time_usec: 193706, interval_given: 375
 UTHREAD_DONE, elapsed time: 126, start_time: 193706, finish_time:193832 credits:75
UTHREAD_DONE, thread_id: 55, initial_credits: 75, execution_start_time_sec: 1410743907, execution_start_time_usec: 193706, execution_finish_time_sec: 1410743907, execution_finish_time_usec: 193832, interval_given: 375, current execution time: 126, current_credits: 75
Scheduling Thread: thread_id: 59, current_credits: 100, initial_credits: 100, start_time_sec: 1410743907, start_time_usec: 193832, interval_given: 500
 UTHREAD_DONE, elapsed time: 257, start_time: 193832, finish_time:194089 credits:100
UTHREAD_DONE, thread_id: 59, initial_credits: 100, execution_start_time_sec: 1410743907, execution_start_time_usec: 193832, execution_finish_time_sec: 1410743907, execution_finish_time_usec: 194089, interval_given: 500, current execution time: 257, current_credits: 100
Scheduling Thread: thread_id: 63, current_credits: 100, initial_credits: 100, start_time_sec: 1410743907, start_time_usec: 194101, interval_given: 500
 UTHREAD_DONE, elapsed time: 483, start_time: 194101, finish_time:194584 credits:100
UTHREAD_DONE, thread_id: 63, initial_credits: 100, execution_start_time_sec: 1410743907, execution_start_time_usec: 194101, execution_finish_time_sec: 1410743907, execution_finish_time_usec: 194584, interval_given: 500, current execution time: 483, current_credits: 100
Scheduling Thread: thread_id: 67, current_credits: 25, initial_credits: 25, start_time_sec: 1410743907, start_time_usec: 194706, interval_given: 125
 Inside ksched_credit
Scheduling Thread: thread_id: 71, current_credits: 25, initial_credits: 25, start_time_sec: 1410743907, start_time_usec: 195709, interval_given: 125
 Scheduling Thread: thread_id: 0, current_credits: 25, initial_credits: 25, start_time_sec: 1410743907, start_time_usec: 206604, interval_given: 125
 UTHREAD_DONE, elapsed time: 36, start_time: 206604, finish_time:206640 credits:25
UTHREAD_DONE, thread_id: 0, initial_credits: 25, execution_start_time_sec: 1410743907, execution_start_time_usec: 206604, execution_finish_time_sec: 1410743907, execution_finish_time_usec: 206640, interval_given: 125, current execution time: 36, current_credits: 25
Scheduling Thread: thread_id: 4, current_credits: 25, initial_credits: 25, start_time_sec: 1410743907, start_time_usec: 206652, interval_given: 125
 UTHREAD_DONE, elapsed time: 33, start_time: 206652, finish_time:206685 credits:25
UTHREAD_DONE, thread_id: 4, initial_credits: 25, execution_start_time_sec: 1410743907, execution_start_time_usec: 206652, execution_finish_time_sec: 1410743907, execution_finish_time_usec: 206685, interval_given: 125, current execution time: 33, current_credits: 25
Scheduling Thread: thread_id: 8, current_credits: 50, initial_credits: 50, start_time_sec: 1410743907, start_time_usec: 206706, interval_given: 250
 UTHREAD_DONE, elapsed time: 27, start_time: 206706, finish_time:206733 credits:50
UTHREAD_DONE, thread_id: 8, initial_credits: 50, execution_start_time_sec: 1410743907, execution_start_time_usec: 206706, execution_finish_time_sec: 1410743907, execution_finish_time_usec: 206733, interval_given: 250, current execution time: 27, current_credits: 50
Scheduling Thread: thread_id: 12, current_credits: 50, initial_credits: 50, start_time_sec: 1410743907, start_time_usec: 206743, interval_given: 250
 Going to execute gt_yield()
^^^^^^^^^^^^^^^Inside gt_yield^^^^^^^^^^^^^^
IN GT_YIELD, thread_id: 12, initial_credits: 50, elapsed time: 36, start_time_sec: 1410743907, start_time_usec: 206743, finish_time_sec: 1410743907, finish_time_usec: 206779, credits left: 50, interval_given: 250, ratio: 0.144000, actual_credits_consumed: 7, credits left after gt_yield: 43
Scheduling Thread: thread_id: 12, current_credits: 43, initial_credits: 50, start_time_sec: 1410743907, start_time_usec: 206801, interval_given: 215
 UTHREAD_DONE, elapsed time: 37, start_time: 206801, finish_time:206802 credits:43
UTHREAD_DONE, thread_id: 12, initial_credits: 50, execution_start_time_sec: 1410743907, execution_start_time_usec: 206801, execution_finish_time_sec: 1410743907, execution_finish_time_usec: 206802, interval_given: 215, current execution time: 1, current_credits: 43
Scheduling Thread: thread_id: 16, current_credits: 75, initial_credits: 75, start_time_sec: 1410743907, start_time_usec: 206835, interval_given: 375
 UTHREAD_DONE, elapsed time: 22, start_time: 206835, finish_time:206857 credits:75
UTHREAD_DONE, thread_id: 16, initial_credits: 75, execution_start_time_sec: 1410743907, execution_start_time_usec: 206835, execution_finish_time_sec: 1410743907, execution_finish_time_usec: 206857, interval_given: 375, current execution time: 22, current_credits: 75
Scheduling Thread: thread_id: 20, current_credits: 75, initial_credits: 75, start_time_sec: 1410743907, start_time_usec: 206872, interval_given: 375
 UTHREAD_DONE, elapsed time: 36, start_time: 206872, finish_time:206908 credits:75
UTHREAD_DONE, thread_id: 20, initial_credits: 75, execution_start_time_sec: 1410743907, execution_start_time_usec: 206872, execution_finish_time_sec: 1410743907, execution_finish_time_usec: 206908, interval_given: 375, current execution time: 36, current_credits: 75
Scheduling Thread: thread_id: 24, current_credits: 100, initial_credits: 100, start_time_sec: 1410743907, start_time_usec: 206918, interval_given: 500
 UTHREAD_DONE, elapsed time: 34, start_time: 206918, finish_time:206952 credits:100
UTHREAD_DONE, thread_id: 24, initial_credits: 100, execution_start_time_sec: 1410743907, execution_start_time_usec: 206918, execution_finish_time_sec: 1410743907, execution_finish_time_usec: 206952, interval_given: 500, current execution time: 34, current_credits: 100
Scheduling Thread: thread_id: 28, current_credits: 100, initial_credits: 100, start_time_sec: 1410743907, start_time_usec: 206967, interval_given: 500
 UTHREAD_DONE, elapsed time: 32, start_time: 206967, finish_time:206999 credits:100
UTHREAD_DONE, thread_id: 28, initial_credits: 100, execution_start_time_sec: 1410743907, execution_start_time_usec: 206967, execution_finish_time_sec: 1410743907, execution_finish_time_usec: 206999, interval_given: 500, current execution time: 32, current_credits: 100
Scheduling Thread: thread_id: 32, current_credits: 25, initial_credits: 25, start_time_sec: 1410743907, start_time_usec: 207009, interval_given: 125
 UTHREAD_DONE, elapsed time: 289, start_time: 207009, finish_time:207298 credits:25
************Error: elapsed_time_current > interval_given
start_time_sec: 1410743907, start_time_usec: 207009, finish_time: 1410743907, finish_time_usec: 207298
UTHREAD_DONE, thread_id: 32, initial_credits: 25, execution_start_time_sec: 1410743907, execution_start_time_usec: 207009, execution_finish_time_sec: 1410743907, execution_finish_time_usec: 207298, interval_given: 125, current execution time: 289, current_credits: 25
Scheduling Thread: thread_id: 36, current_credits: 25, initial_credits: 25, start_time_sec: 1410743907, start_time_usec: 207314, interval_given: 125
 UTHREAD_DONE, elapsed time: 289, start_time: 207314, finish_time:207603 credits:25
************Error: elapsed_time_current > interval_given
start_time_sec: 1410743907, start_time_usec: 207314, finish_time: 1410743907, finish_time_usec: 207603
UTHREAD_DONE, thread_id: 36, initial_credits: 25, execution_start_time_sec: 1410743907, execution_start_time_usec: 207314, execution_finish_time_sec: 1410743907, execution_finish_time_usec: 207603, interval_given: 125, current execution time: 289, current_credits: 25
Scheduling Thread: thread_id: 40, current_credits: 50, initial_credits: 50, start_time_sec: 1410743907, start_time_usec: 207620, interval_given: 250
 UTHREAD_DONE, elapsed time: 262, start_time: 207620, finish_time:207882 credits:50
************Error: elapsed_time_current > interval_given
start_time_sec: 1410743907, start_time_usec: 207620, finish_time: 1410743907, finish_time_usec: 207882
UTHREAD_DONE, thread_id: 40, initial_credits: 50, execution_start_time_sec: 1410743907, execution_start_time_usec: 207620, execution_finish_time_sec: 1410743907, execution_finish_time_usec: 207882, interval_given: 250, current execution time: 262, current_credits: 50
Scheduling Thread: thread_id: 44, current_credits: 50, initial_credits: 50, start_time_sec: 1410743907, start_time_usec: 207900, interval_given: 250
 UTHREAD_DONE, elapsed time: 254, start_time: 207900, finish_time:208154 credits:50
************Error: elapsed_time_current > interval_given
start_time_sec: 1410743907, start_time_usec: 207900, finish_time: 1410743907, finish_time_usec: 208154
UTHREAD_DONE, thread_id: 44, initial_credits: 50, execution_start_time_sec: 1410743907, execution_start_time_usec: 207900, execution_finish_time_sec: 1410743907, execution_finish_time_usec: 208154, interval_given: 250, current execution time: 254, current_credits: 50
Scheduling Thread: thread_id: 48, current_credits: 75, initial_credits: 75, start_time_sec: 1410743907, start_time_usec: 208168, interval_given: 375
 UTHREAD_DONE, elapsed time: 268, start_time: 208168, finish_time:208436 credits:75
UTHREAD_DONE, thread_id: 48, initial_credits: 75, execution_start_time_sec: 1410743907, execution_start_time_usec: 208168, execution_finish_time_sec: 1410743907, execution_finish_time_usec: 208436, interval_given: 375, current execution time: 268, current_credits: 75
Scheduling Thread: thread_id: 52, current_credits: 75, initial_credits: 75, start_time_sec: 1410743907, start_time_usec: 208449, interval_given: 375
 UTHREAD_DONE, elapsed time: 270, start_time: 208449, finish_time:208719 credits:75
UTHREAD_DONE, thread_id: 52, initial_credits: 75, execution_start_time_sec: 1410743907, execution_start_time_usec: 208449, execution_finish_time_sec: 1410743907, execution_finish_time_usec: 208719, interval_given: 375, current execution time: 270, current_credits: 75
Scheduling Thread: thread_id: 56, current_credits: 100, initial_credits: 100, start_time_sec: 1410743907, start_time_usec: 208731, interval_given: 500
 UTHREAD_DONE, elapsed time: 257, start_time: 208731, finish_time:208988 credits:100
UTHREAD_DONE, thread_id: 56, initial_credits: 100, execution_start_time_sec: 1410743907, execution_start_time_usec: 208731, execution_finish_time_sec: 1410743907, execution_finish_time_usec: 208988, interval_given: 500, current execution time: 257, current_credits: 100
Scheduling Thread: thread_id: 60, current_credits: 100, initial_credits: 100, start_time_sec: 1410743907, start_time_usec: 209006, interval_given: 500
 UTHREAD_DONE, elapsed time: 264, start_time: 209006, finish_time:209270 credits:100
UTHREAD_DONE, thread_id: 60, initial_credits: 100, execution_start_time_sec: 1410743907, execution_start_time_usec: 209006, execution_finish_time_sec: 1410743907, execution_finish_time_usec: 209270, interval_given: 500, current execution time: 264, current_credits: 100
Scheduling Thread: thread_id: 64, current_credits: 25, initial_credits: 25, start_time_sec: 1410743907, start_time_usec: 209281, interval_given: 125
 Inside ksched_credit
Scheduling Thread: thread_id: 70, current_credits: 25, initial_credits: 25, start_time_sec: 1410743907, start_time_usec: 222859, interval_given: 125
 Inside ksched_credit
Scheduling Thread: thread_id: 66, current_credits: 25, initial_credits: 25, start_time_sec: 1410743907, start_time_usec: 224843, interval_given: 125
 UTHREAD_DONE, elapsed time: 900, start_time: 224843, finish_time:225743 credits:25
************Error: elapsed_time_current > interval_given
start_time_sec: 1410743907, start_time_usec: 224843, finish_time: 1410743907, finish_time_usec: 225743
UTHREAD_DONE, thread_id: 66, initial_credits: 25, execution_start_time_sec: 1410743907, execution_start_time_usec: 224843, execution_finish_time_sec: 1410743907, execution_finish_time_usec: 225743, interval_given: 125, current execution time: 900, current_credits: 25
Scheduling Thread: thread_id: 70, current_credits: 25, initial_credits: 25, start_time_sec: 1410743907, start_time_usec: 225749, interval_given: 125
 UTHREAD_DONE, elapsed time: 200, start_time: 225749, finish_time:225949 credits:25
************Error: elapsed_time_current > interval_given
start_time_sec: 1410743907, start_time_usec: 225749, finish_time: 1410743907, finish_time_usec: 225949
UTHREAD_DONE, thread_id: 70, initial_credits: 25, execution_start_time_sec: 1410743907, execution_start_time_usec: 225749, execution_finish_time_sec: 1410743907, execution_finish_time_usec: 225949, interval_given: 125, current execution time: 200, current_credits: 25
Scheduling Thread: thread_id: 74, current_credits: 50, initial_credits: 50, start_time_sec: 1410743907, start_time_usec: 225974, interval_given: 250
 Inside ksched_credit
Scheduling Thread: thread_id: 69, current_credits: 25, initial_credits: 25, start_time_sec: 1410743907, start_time_usec: 227733, interval_given: 125
 Inside ksched_credit
Scheduling Thread: thread_id: 65, current_credits: 25, initial_credits: 25, start_time_sec: 1410743907, start_time_usec: 229719, interval_given: 125
 UTHREAD_DONE, elapsed time: 931, start_time: 229719, finish_time:230650 credits:25
************Error: elapsed_time_current > interval_given
start_time_sec: 1410743907, start_time_usec: 229719, finish_time: 1410743907, finish_time_usec: 230650
UTHREAD_DONE, thread_id: 65, initial_credits: 25, execution_start_time_sec: 1410743907, execution_start_time_usec: 229719, execution_finish_time_sec: 1410743907, execution_finish_time_usec: 230650, interval_given: 125, current execution time: 931, current_credits: 25
Scheduling Thread: thread_id: 69, current_credits: 25, initial_credits: 25, start_time_sec: 1410743907, start_time_usec: 230656, interval_given: 125
 UTHREAD_DONE, elapsed time: 239, start_time: 230656, finish_time:230895 credits:25
************Error: elapsed_time_current > interval_given
start_time_sec: 1410743907, start_time_usec: 230656, finish_time: 1410743907, finish_time_usec: 230895
UTHREAD_DONE, thread_id: 69, initial_credits: 25, execution_start_time_sec: 1410743907, execution_start_time_usec: 230656, execution_finish_time_sec: 1410743907, execution_finish_time_usec: 230895, interval_given: 125, current execution time: 239, current_credits: 25
Scheduling Thread: thread_id: 73, current_credits: 50, initial_credits: 50, start_time_sec: 1410743907, start_time_usec: 230910, interval_given: 250
 Inside ksched_credit
Scheduling Thread: thread_id: 67, current_credits: 25, initial_credits: 25, start_time_sec: 1410743907, start_time_usec: 235709, interval_given: 125
 UTHREAD_DONE, elapsed time: 1123, start_time: 235709, finish_time:236832 credits:25
************Error: elapsed_time_current > interval_given
